[{"stop_id": "P-185", "stop_name": "Av. Coihueco esq. UBB Campus F. May", "stop_lat": -36.603161, "stop_lon": -72.079141}, {"stop_id": "P-844", "stop_name": "Ruta N66 esq. Posta Huape", "stop_lat": -36.607858, "stop_lon": -72.261249}, {"stop_id": "P-901", "stop_name": "Zañartu esq. 5 de Noviembre", "stop_lat": -36.606191, "stop_lon": -72.130501}, {"stop_id": "P-363", "stop_name": "Camino A Las Mariposas esq. El Jardín", "stop_lat": -36.63095, "stop_lon": -72.040785}, {"stop_id": "L8", "stop_name": "Terminal L8", "stop_lat": -36.625111, "stop_lon": -72.078895}, {"stop_id": "P-262", "stop_name": "Av. Los Puelches esq. Esmeralda", "stop_lat": -36.620614, "stop_lon": -72.086133}, {"stop_id": "P-510", "stop_name": "Ejercito de Chile esq. Av. Dr. Sepúlveda", "stop_lat": -36.605046, "stop_lon": -72.115824}, {"stop_id": "P-626", "stop_name": "Lago Lanalhue esq. Av. Nueva Oriente", "stop_lat": -36.613517, "stop_lon": -72.075971}, {"stop_id": "P-232", "stop_name": "Av. Libertad esq. Av. Brasil", "stop_lat": -36.604125, "stop_lon": -72.111328}, {"stop_id": "P-808", "stop_name": "Reloncaví esq. Pilmaquien", "stop_lat": -36.617131, "stop_lon": -72.082447}, {"stop_id": "P-207", "stop_name": "Av. Ecuador esq. Tregualemu", "stop_lat": -36.600709, "stop_lon": -72.096601}, {"stop_id": "P-420", "stop_name": "Central esq. Cinco Poniente", "stop_lat": -36.61625, "stop_lon": -72.122502}, {"stop_id": "P-218", "stop_name": "Av. Inglaterra esq. O'Brien", "stop_lat": -36.616291, "stop_lon": -72.086707}, {"stop_id": "P-395", "stop_name": "Camino Colonia esq. Outlet", "stop_lat": -36.58798, "stop_lon": -72.077364}, {"stop_id": "P-360", "stop_name": "Camino a Colonia B. O'Higgins esq. Emmanuel", "stop_lat": -36.586722, "stop_lon": -72.075782}, {"stop_id": "P-580", "stop_name": "Gerona esq. Andorra", "stop_lat": -36.595697, "stop_lon": -72.065585}, {"stop_id": "P-611", "stop_name": "Isabel Riquelme esq. El Roble", "stop_lat": -36.609289, "stop_lon": -72.100216}, {"stop_id": "P-81", "stop_name": "Av. Alonso De Ercilla esq. Monterrico", "stop_lat": -36.625553, "stop_lon": -72.082215}, {"stop_id": "P-818", "stop_name": "Río Viejo esq. San Ignacio", "stop_lat": -36.630692, "stop_lon": -72.08902}, {"stop_id": "P-757", "stop_name": "Mario Vergara esq. Pasaje 3", "stop_lat": -36.61016, "stop_lon": -72.086762}, {"stop_id": "P-924", "stop_name": "Las Rosas esq. Espino", "stop_lat": -36.590501, "stop_lon": -72.110345}, {"stop_id": "P-867", "stop_name": "Santa Catalina de Ricci esq. San Francisco Fernández", "stop_lat": -36.604813, "stop_lon": -72.06369}, {"stop_id": "P-798", "stop_name": "Pueblo Seco esq. Salto del Itata", "stop_lat": -36.631043, "stop_lon": -72.073989}, {"stop_id": "P-244", "stop_name": "Av. Libertador Bernardo O'Higgins esq. Rosauro Acuña", "stop_lat": -36.619648, "stop_lon": -72.120274}, {"stop_id": "P-174", "stop_name": "Av. Circunvalacion esq. Pueblo Seco", "stop_lat": -36.631169, "stop_lon": -72.07288}, {"stop_id": "P-97", "stop_name": "Av. Antártica Chilena esq. Amunátegui", "stop_lat": -36.609383, "stop_lon": -72.142434}, {"stop_id": "P-836", "stop_name": "Ruta N-439 esq. Vicente Mendez", "stop_lat": -36.58872, "stop_lon": -72.078323}, {"stop_id": "P-567", "stop_name": "Galvarino esq. Caupolican", "stop_lat": -36.625284, "stop_lon": -72.095905}, {"stop_id": "P-767", "stop_name": "Nueva Sur esq. Los Nardos", "stop_lat": -36.627447, "stop_lon": -72.098611}, {"stop_id": "P-630", "stop_name": "Lago Lanalhue esq. Los Cóndores", "stop_lat": -36.612619, "stop_lon": -72.079211}, {"stop_id": "P-488", "stop_name": "Corregidor Alvarado esq. Dos Oriente", "stop_lat": -36.614982, "stop_lon": -72.124261}, {"stop_id": "P-354", "stop_name": "Calle Granaderos esq. Demetrio O Higgins Puga", "stop_lat": -36.627507, "stop_lon": -72.110904}, {"stop_id": "P-279", "stop_name": "Av. Mariscal Ruíz esq. Las Américas", "stop_lat": -36.598626, "stop_lon": -72.115586}, {"stop_id": "L6", "stop_name": "Terminal L6", "stop_lat": -36.62334, "stop_lon": -72.080427}, {"stop_id": "P-697", "stop_name": "Los Espinos esq. Rio Cisnes", "stop_lat": -36.629402, "stop_lon": -72.103547}, {"stop_id": "P-343", "stop_name": "Bombero Lagos esq. Av. O'Higgins", "stop_lat": -36.617044, "stop_lon": -72.115075}, {"stop_id": "P-817", "stop_name": "Río Viejo esq. Los Raulíes", "stop_lat": -36.63046, "stop_lon": -72.091193}, {"stop_id": "P-135", "stop_name": "Av. Baquedano esq. Paula Jaraquemada", "stop_lat": -36.634107, "stop_lon": -72.126038}, {"stop_id": "P-274", "stop_name": "Av. Mariscal Ruiz De Gamboa esq. Puente", "stop_lat": -36.602494, "stop_lon": -72.118295}, {"stop_id": "P-150", "stop_name": "Av. Bernardo O Higgins esq. Virrey Don Ambrosio", "stop_lat": -36.622157, "stop_lon": -72.124261}, {"stop_id": "P-825", "stop_name": "Rosauro Acuña esq. Eulogio Bañares", "stop_lat": -36.620989, "stop_lon": -72.116923}, {"stop_id": "P-910", "stop_name": "Zañartu esq. Padre Las Casas", "stop_lat": -36.60662, "stop_lon": -72.133203}, {"stop_id": "P-748", "stop_name": "Manuel Rodriguez esq. Cancha Rayada", "stop_lat": -36.593454, "stop_lon": -72.094176}, {"stop_id": "P-716", "stop_name": "Luis Antini Riveros esq. Camino Parque Lantaño", "stop_lat": -36.593348, "stop_lon": -72.11848}, {"stop_id": "L4", "stop_name": "Terminal L4", "stop_lat": -36.631541, "stop_lon": -72.082881}, {"stop_id": "P-909", "stop_name": "Zañartu esq. Osorno", "stop_lat": -36.6079, "stop_lon": -72.141254}, {"stop_id": "P-795", "stop_name": "Pueblo Seco esq. Angol", "stop_lat": -36.6306, "stop_lon": -72.07624}, {"stop_id": "P-285", "stop_name": "Av. Nueva Oriente esq. Cerro Sifon", "stop_lat": -36.61653, "stop_lon": -72.076367}, {"stop_id": "P-2", "stop_name": "11 Oriente esq. Tres Norte", "stop_lat": -36.613801, "stop_lon": -72.088417}, {"stop_id": "P-36", "stop_name": "Ángel Parra esq. Antonio Varas", "stop_lat": -36.625559, "stop_lon": -72.131643}, {"stop_id": "P-41", "stop_name": "Ángol esq. Los Lirios", "stop_lat": -36.628552, "stop_lon": -72.076562}, {"stop_id": "P-107", "stop_name": "Av. Antartica Chilena esq. Pto Montt", "stop_lat": -36.609844, "stop_lon": -72.145319}, {"stop_id": "P-164", "stop_name": "Av. Brasil esq. Vega De Saldias", "stop_lat": -36.601653, "stop_lon": -72.111012}, {"stop_id": "P-503", "stop_name": "Diego Portales esq. Av. Argentina", "stop_lat": -36.607352, "stop_lon": -72.092125}, {"stop_id": "P-60", "stop_name": "Av. Alonso De Ercilla esq. Calle Porvenir", "stop_lat": -36.628512, "stop_lon": -72.055856}, {"stop_id": "P-471", "stop_name": "Condel del Maule esq. Calle Las Canoas", "stop_lat": -36.629422, "stop_lon": -72.119012}, {"stop_id": "P-233", "stop_name": "Av. Libertad esq. Av. O'Higgins", "stop_lat": -36.604699, "stop_lon": -72.108989}, {"stop_id": "P-500", "stop_name": "Diego de Almagro esq. Av. P. Alberto Hurtado", "stop_lat": -36.594063, "stop_lon": -72.100784}, {"stop_id": "P-812", "stop_name": "Rio Viejo esq. Leucoton", "stop_lat": -36.628237, "stop_lon": -72.095634}, {"stop_id": "P-550", "stop_name": "Flores Millán esq. Av. Portal del Libertador", "stop_lat": -36.585749, "stop_lon": -72.083314}, {"stop_id": "P-112", "stop_name": "Av. Argentina esq. Bulnes", "stop_lat": -36.606404, "stop_lon": -72.092389}, {"stop_id": "P-534", "stop_name": "Erasmo Escala esq. General Velasquez", "stop_lat": -36.619642, "stop_lon": -72.125376}, {"stop_id": "P-530", "stop_name": "Erasmo Escala esq. Av. Libertador O'Higgins", "stop_lat": -36.623688, "stop_lon": -72.12647}, {"stop_id": "P-8", "stop_name": "20 de agosto esq. Del Rosario", "stop_lat": -36.628961, "stop_lon": -72.134212}, {"stop_id": "P-341", "stop_name": "Belén esq. Nazaret", "stop_lat": -36.637913, "stop_lon": -72.088435}, {"stop_id": "P-669", "stop_name": "Loma Blanca esq. Valle Hermoso", "stop_lat": -36.628212, "stop_lon": -72.070241}, {"stop_id": "P-637", "stop_name": "Las Margaritas esq. Barros Arana", "stop_lat": -36.631186, "stop_lon": -72.101702}, {"stop_id": "P-746", "stop_name": "Maipon esq. Rosas", "stop_lat": -36.608129, "stop_lon": -72.111037}, {"stop_id": "P-724", "stop_name": "Luis Araneda esq. Paula Jaraquemada", "stop_lat": -36.63113, "stop_lon": -72.139135}, {"stop_id": "P-186", "stop_name": "Av. Collin esq. 18 De Septiembre", "stop_lat": -36.614582, "stop_lon": -72.106597}, {"stop_id": "P-311", "stop_name": "Av. Vicente Mendéz esq. Diego de Almagro", "stop_lat": -36.598059, "stop_lon": -72.088215}, {"stop_id": "P-839", "stop_name": "Ruta N66 esq. Cementerio Huape", "stop_lat": -36.610227, "stop_lon": -72.229718}, {"stop_id": "P-268", "stop_name": "Av. Mariscal Ruiz De Gamboa esq. Corregidor Alvarado", "stop_lat": -36.613651, "stop_lon": -72.12785}, {"stop_id": "P-74", "stop_name": "Av. Alonso de Ercilla esq. Los Ángeles", "stop_lat": -36.625735, "stop_lon": -72.074373}, {"stop_id": "P-561", "stop_name": "Francisco Ramirez esq. Av. Coihueco", "stop_lat": -36.608639, "stop_lon": -72.08715}, {"stop_id": "P-745", "stop_name": "Maipon esq. Plaza La Victoria", "stop_lat": -36.608605, "stop_lon": -72.109075}, {"stop_id": "P-30", "stop_name": "Alcántara esq. Barcelona", "stop_lat": -36.592678, "stop_lon": -72.06761}, {"stop_id": "P-321", "stop_name": "Barros Arana esq. Alberto Orrego Luco", "stop_lat": -36.634597, "stop_lon": -72.101438}, {"stop_id": "P-200", "stop_name": "Av. Ecuador esq. Av. O'Higgins", "stop_lat": -36.598669, "stop_lon": -72.105839}, {"stop_id": "P-246", "stop_name": "Av. Libertador Bernardo O'Higgins esq. Tegualda", "stop_lat": -36.619737, "stop_lon": -72.120764}, {"stop_id": "P-46", "stop_name": "Anibal Pinto esq. Lautaro", "stop_lat": -36.627744, "stop_lon": -72.093126}, {"stop_id": "P-581", "stop_name": "Gerona esq. La Escala", "stop_lat": -36.595354, "stop_lon": -72.067505}, {"stop_id": "P-406", "stop_name": "Camino Nuevo esq. Crisolita", "stop_lat": -36.633723, "stop_lon": -72.084977}, {"stop_id": "P-430", "stop_name": "Central Panificadores esq. Cerro Negro", "stop_lat": -36.614315, "stop_lon": -72.077635}, {"stop_id": "P-372", "stop_name": "Camino A Las Mariposas esq. Km 7.7", "stop_lat": -36.643337, "stop_lon": -71.978917}, {"stop_id": "P-655", "stop_name": "Lautaro esq. Los Araucanos", "stop_lat": -36.628502, "stop_lon": -72.091138}, {"stop_id": "P-851", "stop_name": "Ruta N66 esq. Villa Iraira", "stop_lat": -36.613156, "stop_lon": -72.180882}, {"stop_id": "P-759", "stop_name": "Mario Vergara esq. Pje. 4", "stop_lat": -36.610377, "stop_lon": -72.087067}, {"stop_id": "P-253", "stop_name": "Av. Libertador O'Higgins esq. Prieto", "stop_lat": -36.615806, "stop_lon": -72.114992}, {"stop_id": "P-855", "stop_name": "San Bartolomé esq. San Ignacio", "stop_lat": -36.635014, "stop_lon": -72.089856}, {"stop_id": "P-523", "stop_name": "El Tejar esq. Pje. Ocho", "stop_lat": -36.618824, "stop_lon": -72.123575}, {"stop_id": "P-769", "stop_name": "Nueva Sur esq. Pje. Victor Flores", "stop_lat": -36.629798, "stop_lon": -72.102215}, {"stop_id": "P-797", "stop_name": "Pueblo Seco esq. Los Ángeles", "stop_lat": -36.630702, "stop_lon": -72.07524}, {"stop_id": "P-777", "stop_name": "Panamericana Sur esq. Los Tilos", "stop_lat": -36.532964, "stop_lon": -72.077712}, {"stop_id": "P-149", "stop_name": "Av. Bernardo O Higgins esq. Unimarc Chillan Viejo", "stop_lat": -36.623057, "stop_lon": -72.126797}, {"stop_id": "P-394", "stop_name": "Camino a San Bernardo esq. Santa Catalina de Siena", "stop_lat": -36.60969, "stop_lon": -72.06455}, {"stop_id": "P-803", "stop_name": "Real Audiencia esq. Dos Poniente", "stop_lat": -36.616206, "stop_lon": -72.127827}, {"stop_id": "P-338", "stop_name": "Belén esq. Betel", "stop_lat": -36.636553, "stop_lon": -72.087648}, {"stop_id": "P-342", "stop_name": "Belén esq. San Bartolomé", "stop_lat": -36.63589, "stop_lon": -72.087032}, {"stop_id": "P-827", "stop_name": "Rosauro Acuña esq. Los Pellines", "stop_lat": -36.621043, "stop_lon": -72.113581}, {"stop_id": "P-236", "stop_name": "Av. Libertad esq. Yerbas Buenas", "stop_lat": -36.608351, "stop_lon": -72.093999}, {"stop_id": "P-689", "stop_name": "Los Cóndores esq. Cesfam", "stop_lat": -36.618255, "stop_lon": -72.081068}, {"stop_id": "P-399", "stop_name": "Camino Las Mariposas esq. Los Montes", "stop_lat": -36.635323, "stop_lon": -72.009353}, {"stop_id": "P-308", "stop_name": "Av. Vicente Mendez esq. Clinica Las Amapolas", "stop_lat": -36.601034, "stop_lon": -72.089993}, {"stop_id": "P-4", "stop_name": "18 de septiembre esq. Cocharcas", "stop_lat": -36.612632, "stop_lon": -72.106348}, {"stop_id": "P-623", "stop_name": "La Campiña esq. San Francisco Fernandez", "stop_lat": -36.605836, "stop_lon": -72.063814}, {"stop_id": "P-251", "stop_name": "Av. Libertador O'Higgins esq. Diego de Almagro", "stop_lat": -36.591921, "stop_lon": -72.103593}, {"stop_id": "P-16", "stop_name": "25 de Septiembre esq. Av. Baquedano", "stop_lat": -36.629178, "stop_lon": -72.125593}, {"stop_id": "P-415", "stop_name": "Carlos Lozzier esq. Ángel Oyarzun", "stop_lat": -36.622224, "stop_lon": -72.100238}, {"stop_id": "P-365", "stop_name": "Camino A Las Mariposas esq. Km 2.5", "stop_lat": -36.631868, "stop_lon": -72.034282}, {"stop_id": "P-410", "stop_name": "Camino Parque Lantaño esq. Guabira Poniente", "stop_lat": -36.59198, "stop_lon": -72.121304}, {"stop_id": "P-880", "stop_name": "Simón Bolivar esq. Tarapacá", "stop_lat": -36.607313, "stop_lon": -72.123309}, {"stop_id": "P-494", "stop_name": "Del Rosario esq. Ángel Parra", "stop_lat": -36.629721, "stop_lon": -72.133003}, {"stop_id": "P-205", "stop_name": "Av. Ecuador esq. Independencia", "stop_lat": -36.601443, "stop_lon": -72.094606}, {"stop_id": "P-875", "stop_name": "Simón Bolívar esq. Bilbao", "stop_lat": -36.609024, "stop_lon": -72.134213}, {"stop_id": "P-533", "stop_name": "Erasmo Escala esq. El Rosario", "stop_lat": -36.630505, "stop_lon": -72.128269}, {"stop_id": "P-470", "stop_name": "Conde del Maule esq. Orozimbo Barboza", "stop_lat": -36.628163, "stop_lon": -72.125622}, {"stop_id": "P-520", "stop_name": "El Rosario esq. 20 de Agosto", "stop_lat": -36.629506, "stop_lon": -72.133692}, {"stop_id": "P-24", "stop_name": "Alberto Orrego Luco esq. Barros Arana", "stop_lat": -36.635326, "stop_lon": -72.100273}, {"stop_id": "P-676", "stop_name": "Longitudinal Sur esq. Universidad Pedro De Valdivia", "stop_lat": -36.568408, "stop_lon": -72.097729}, {"stop_id": "P-32", "stop_name": "Andres Bello esq. Centenario", "stop_lat": -36.601391, "stop_lon": -72.116134}, {"stop_id": "P-713", "stop_name": "Los Puelches esq. La Tirana", "stop_lat": -36.623604, "stop_lon": -72.087125}, {"stop_id": "P-919", "stop_name": "Camino Ñuble Alto esq. Manuel Feliciano", "stop_lat": -36.582707, "stop_lon": -72.131506}, {"stop_id": "P-802", "stop_name": "Real Audiencia esq. Dos Poniente", "stop_lat": -36.615948, "stop_lon": -72.128529}, {"stop_id": "P-427", "stop_name": "Central Panificadores esq. Central Panificadores", "stop_lat": -36.614299, "stop_lon": -72.077348}, {"stop_id": "P-486", "stop_name": "Cordillera esq. Los Petriles", "stop_lat": -36.618424, "stop_lon": -72.084652}, {"stop_id": "P-584", "stop_name": "Cau Cau esq. Río Lircay", "stop_lat": -36.628552, "stop_lon": -72.106606}, {"stop_id": "P-891", "stop_name": "Valparaiso esq. Simón Bolivar", "stop_lat": -36.607858, "stop_lon": -72.12958}, {"stop_id": "P-732", "stop_name": "Madrid / Plaza Villa Madrid", "stop_lat": -36.625337, "stop_lon": -72.107031}, {"stop_id": "P-575", "stop_name": "Gamero esq. Independencia", "stop_lat": -36.604132, "stop_lon": -72.094413}, {"stop_id": "P-195", "stop_name": "Av. Ecuador esq. Asturias", "stop_lat": -36.598862, "stop_lon": -72.104106}, {"stop_id": "P-208", "stop_name": "Av. El Tejar esq. Calle uno", "stop_lat": -36.617794, "stop_lon": -72.122482}, {"stop_id": "P-625", "stop_name": "La Colonia esq. Corregidor Alvarado", "stop_lat": -36.615107, "stop_lon": -72.125672}, {"stop_id": "P-872", "stop_name": "Sepulveda Bustos esq. Frigorífico San José", "stop_lat": -36.609627, "stop_lon": -72.159612}, {"stop_id": "P-283", "stop_name": "Av. Nueva Oriente esq. Cerro Plomo", "stop_lat": -36.618417, "stop_lon": -72.07693}, {"stop_id": "P-58", "stop_name": "Av. Alonso De Ercilla esq. Av. Circunvalacion", "stop_lat": -36.625714, "stop_lon": -72.071802}, {"stop_id": "P-841", "stop_name": "Ruta N66 esq. Los Alerces", "stop_lat": -36.609768, "stop_lon": -72.242006}, {"stop_id": "P-649", "stop_name": "Las Termas esq. Mejillones", "stop_lat": -36.607233, "stop_lon": -72.074352}, {"stop_id": "P-145", "stop_name": "Av. Bernardo O Higgins esq. Plaza de Chillan Viejo", "stop_lat": -36.622363, "stop_lon": -72.131301}, {"stop_id": "P-588", "stop_name": "Huambalí esq. Av. Reino de Chile", "stop_lat": -36.629623, "stop_lon": -72.107236}, {"stop_id": "P-835", "stop_name": "Ruta N-439 esq. Emmanuel", "stop_lat": -36.586009, "stop_lon": -72.074821}, {"stop_id": "P-407", "stop_name": "Camino Nuevo esq. Cuzco", "stop_lat": -36.634661, "stop_lon": -72.085689}, {"stop_id": "P-810", "stop_name": "Río Viejo esq. Anibal Pinto", "stop_lat": -36.629288, "stop_lon": -72.094271}, {"stop_id": "P-55", "stop_name": "Atacama esq. Zañartu", "stop_lat": -36.605988, "stop_lon": -72.125811}, {"stop_id": "P-845", "stop_name": "Ruta N66 esq. Posta Huape", "stop_lat": -36.607948, "stop_lon": -72.261244}, {"stop_id": "P-846", "stop_name": "Ruta N66 esq. Vibro Sur", "stop_lat": -36.610682, "stop_lon": -72.166222}, {"stop_id": "P-546", "stop_name": "Estero LLuanco esq. Camino Los Guindos", "stop_lat": -36.625961, "stop_lon": -72.067537}, {"stop_id": "P-260", "stop_name": "Av. Los Puelches esq. Central Panificadores", "stop_lat": -36.612922, "stop_lon": -72.083314}, {"stop_id": "P-877", "stop_name": "Simon Bolivar esq. Madrid", "stop_lat": -36.609866, "stop_lon": -72.139381}, {"stop_id": "P-650", "stop_name": "Las Termas esq. San Juan", "stop_lat": -36.619356, "stop_lon": -72.077985}, {"stop_id": "P-89", "stop_name": "Av. Alonso De Ercilla esq. Salto Del Itata", "stop_lat": -36.625634, "stop_lon": -72.072815}, {"stop_id": "P-66", "stop_name": "Av. Alonso de Ercilla esq. El Jardín", "stop_lat": -36.631152, "stop_lon": -72.039824}, {"stop_id": "P-787", "stop_name": "Pedro Aguirre Cerda esq. Don Bernardo", "stop_lat": -36.619736, "stop_lon": -72.109366}, {"stop_id": "P-640", "stop_name": "Las Rosas esq. Av. Libertad Oriente", "stop_lat": -36.60935, "stop_lon": -72.081671}, {"stop_id": "P-900", "stop_name": "Yungay esq. Iquique", "stop_lat": -36.602796, "stop_lon": -72.088706}, {"stop_id": "P-184", "stop_name": "Av. Coihueco esq. The Wessex School", "stop_lat": -36.59291, "stop_lon": -72.071033}, {"stop_id": "P-578", "stop_name": "Ganaderos esq. Los Copihues", "stop_lat": -36.626629, "stop_lon": -72.110468}, {"stop_id": "P-460", "stop_name": "Chacabuco esq. Anibal Pinto", "stop_lat": -36.603603, "stop_lon": -72.083955}, {"stop_id": "P-656", "stop_name": "Lautaro esq. Los Araucanos", "stop_lat": -36.628379, "stop_lon": -72.091735}, {"stop_id": "P-12", "stop_name": "20 de agosto esq. General Velásquez", "stop_lat": -36.61912, "stop_lon": -72.131527}, {"stop_id": "P-429", "stop_name": "Central Panificadores esq. Cerro El León", "stop_lat": -36.615051, "stop_lon": -72.071364}, {"stop_id": "P-211", "stop_name": "Av. España esq. 3 Oriente", "stop_lat": -36.61433, "stop_lon": -72.093344}, {"stop_id": "P-256", "stop_name": "Av. Los Puelches esq. 2 sur", "stop_lat": -36.615052, "stop_lon": -72.084263}, {"stop_id": "P-72", "stop_name": "Av. Alonso de Ercilla esq. Leucotón", "stop_lat": -36.624318, "stop_lon": -72.094561}, {"stop_id": "P-497", "stop_name": "Demetrio O'Higgins esq. 4 Poniente", "stop_lat": -36.628723, "stop_lon": -72.104651}, {"stop_id": "P-424", "stop_name": "Central esq. Tres Poniente", "stop_lat": -36.616558, "stop_lon": -72.122016}, {"stop_id": "P-522", "stop_name": "El Tejar esq. Pje. Dos", "stop_lat": -36.617891, "stop_lon": -72.119504}, {"stop_id": "P-912", "stop_name": "Zañartu esq. Veintiuno de Mayo", "stop_lat": -36.608268, "stop_lon": -72.143572}, {"stop_id": "P-209", "stop_name": "Av. El Tejar esq. Cuatro Sur", "stop_lat": -36.617894, "stop_lon": -72.122905}, {"stop_id": "P-780", "stop_name": "Panamericana Sur esq. Ruta N-50", "stop_lat": -36.526544, "stop_lon": -72.068436}, {"stop_id": "P-762", "stop_name": "Nicolás de la Cruz esq. Aguistín de Eyzaguirre", "stop_lat": -36.628413, "stop_lon": -72.110694}, {"stop_id": "P-554", "stop_name": "Flores Millán esq. La Espiga", "stop_lat": -36.588297, "stop_lon": -72.085515}, {"stop_id": "L10", "stop_name": "Terminal L10", "stop_lat": -36.631735, "stop_lon": -72.035128}, {"stop_id": "P-890", "stop_name": "Tres Oriente esq. Pje. Sur", "stop_lat": -36.616931, "stop_lon": -72.094045}, {"stop_id": "P-100", "stop_name": "Av. Antartica Chilena esq. Bío-Bío", "stop_lat": -36.609104, "stop_lon": -72.140663}, {"stop_id": "P-223", "stop_name": "Av. La Castilla esq. Liceo Martin Ruiz De Gamboa", "stop_lat": -36.612411, "stop_lon": -72.115756}, {"stop_id": "P-446", "stop_name": "Cerro Santa Lucía esq. Cerro Termas de Chillán", "stop_lat": -36.616332, "stop_lon": -72.0741}, {"stop_id": "P-192", "stop_name": "Av. Ecuador esq. 24 De Enero", "stop_lat": -36.597863, "stop_lon": -72.108124}, {"stop_id": "P-574", "stop_name": "Gamero esq. Arauco", "stop_lat": -36.602632, "stop_lon": -72.10055}, {"stop_id": "P-758", "stop_name": "Mario Vergara esq. Pasaje 8", "stop_lat": -36.61173, "stop_lon": -72.087596}, {"stop_id": "P-770", "stop_name": "Orizimbo Barboza esq. General Velasquez", "stop_lat": -36.619564, "stop_lon": -72.123849}, {"stop_id": "P-92", "stop_name": "Av. Andrés Bello esq. María Elena", "stop_lat": -36.603421, "stop_lon": -72.079221}, {"stop_id": "P-217", "stop_name": "Av. Inglaterra esq. Av. Los Puelches", "stop_lat": -36.616256, "stop_lon": -72.085974}, {"stop_id": "P-714", "stop_name": "Los Puelches esq. Persa San Rafael", "stop_lat": -36.624697, "stop_lon": -72.087328}, {"stop_id": "P-307", "stop_name": "Av. Vicente Méndez esq. Chacabuco", "stop_lat": -36.601541, "stop_lon": -72.090186}, {"stop_id": "P-3", "stop_name": "18 De Septiembre esq. Bulnes", "stop_lat": -36.605474, "stop_lon": -72.10366}, {"stop_id": "P-44", "stop_name": "Ángol esq. San Nicolás", "stop_lat": -36.627011, "stop_lon": -72.076103}, {"stop_id": "P-439", "stop_name": "Cerro León esq. Cerro Posada", "stop_lat": -36.612208, "stop_lon": -72.069848}, {"stop_id": "P-133", "stop_name": "Av. Baquedano esq. Orozimbo Barboza", "stop_lat": -36.636127, "stop_lon": -72.128278}, {"stop_id": "P-118", "stop_name": "Av. Argentina esq. Maipon", "stop_lat": -36.611961, "stop_lon": -72.094543}, {"stop_id": "P-79", "stop_name": "Av. Alonso de Ercilla esq. Los Tulipanes", "stop_lat": -36.625706, "stop_lon": -72.079718}, {"stop_id": "P-870", "stop_name": "Sepúlveda Bustos esq. Atacama", "stop_lat": -36.604365, "stop_lon": -72.125882}, {"stop_id": "P-152", "stop_name": "Av. Brasil esq. Arturo Prat", "stop_lat": -36.608061, "stop_lon": -72.113401}, {"stop_id": "P-375", "stop_name": "Camino A Las Mariposas esq. Los Montes", "stop_lat": -36.635315, "stop_lon": -72.008926}, {"stop_id": "P-526", "stop_name": "Emmanuel esq. Av. Andres Bello", "stop_lat": -36.589594, "stop_lon": -72.068922}, {"stop_id": "P-42", "stop_name": "Ángol esq. Pje. Los Lirios", "stop_lat": -36.628603, "stop_lon": -72.076463}, {"stop_id": "P-601", "stop_name": "Independencia esq. Constitucion", "stop_lat": -36.609484, "stop_lon": -72.096963}, {"stop_id": "P-422", "stop_name": "Central esq. Seis Poniente", "stop_lat": -36.615913, "stop_lon": -72.123286}, {"stop_id": "P-608", "stop_name": "Isabel Riquelme esq. Cft Santo Tomas", "stop_lat": -36.607596, "stop_lon": -72.099581}, {"stop_id": "P-804", "stop_name": "Real Audiencia esq. Isla Guar", "stop_lat": -36.614877, "stop_lon": -72.131605}, {"stop_id": "P-287", "stop_name": "Av. Nueva Oriente esq. El Volcán", "stop_lat": -36.621363, "stop_lon": -72.077694}, {"stop_id": "P-219", "stop_name": "Av. La Castilla esq. Dos Poniente", "stop_lat": -36.610327, "stop_lon": -72.123453}, {"stop_id": "P-62", "stop_name": "Av. Alonso De Ercilla esq. Colegio Ciudad Educativa", "stop_lat": -36.62833, "stop_lon": -72.057273}, {"stop_id": "P-302", "stop_name": "Av. Reino de Chile esq. Los Espinos", "stop_lat": -36.630461, "stop_lon": -72.10389}, {"stop_id": "P-848", "stop_name": "Ruta N66 esq. Villa Esperanza", "stop_lat": -36.611822, "stop_lon": -72.172717}, {"stop_id": "P-665", "stop_name": "Loma Blanca esq. Atacalco", "stop_lat": -36.626597, "stop_lon": -72.069755}, {"stop_id": "P-383", "stop_name": "Camino A Las Mariposas esq. Pje. Super Bom", "stop_lat": -36.640296, "stop_lon": -71.991257}, {"stop_id": "P-892", "stop_name": "Variante Collin esq. Almirante Latorre", "stop_lat": -36.618629, "stop_lon": -72.095666}, {"stop_id": "P-86", "stop_name": "Av. Alonso De Ercilla esq. Pje. El Sauce", "stop_lat": -36.628821, "stop_lon": -72.05429}, {"stop_id": "P-596", "stop_name": "Huambali esq. Rosauro Acuña", "stop_lat": -36.619955, "stop_lon": -72.105406}, {"stop_id": "P-790", "stop_name": "Pedro Aguirre Cerda esq. Schleyer", "stop_lat": -36.615582, "stop_lon": -72.108171}, {"stop_id": "P-826", "stop_name": "Rosauro Acuña esq. Las Canoas", "stop_lat": -36.621099, "stop_lon": -72.11568}, {"stop_id": "P-498", "stop_name": "Demetrio O'Higgins Puga esq. Los Espinos", "stop_lat": -36.628941, "stop_lon": -72.103741}, {"stop_id": "P-560", "stop_name": "Francia esq. Diego de Almagro", "stop_lat": -36.59568, "stop_lon": -72.10208}, {"stop_id": "P-388", "stop_name": "Camino a San Bernardo esq. Cerro Constancia", "stop_lat": -36.607621, "stop_lon": -72.071477}, {"stop_id": "P-215", "stop_name": "Av. Francia esq. Porvenir", "stop_lat": -36.595483, "stop_lon": -72.101997}, {"stop_id": "P-551", "stop_name": "Flores Millán esq. Camilo Mori", "stop_lat": -36.587808, "stop_lon": -72.084958}, {"stop_id": "P-906", "stop_name": "Zañartu esq. Linares", "stop_lat": -36.607043, "stop_lon": -72.135861}, {"stop_id": "P-405", "stop_name": "Camino Nuevo esq. Central", "stop_lat": -36.632876, "stop_lon": -72.084478}, {"stop_id": "P-620", "stop_name": "Juan de Dios Olivares esq. Chorrillos", "stop_lat": -36.604446, "stop_lon": -72.090027}, {"stop_id": "P-657", "stop_name": "Lautaro esq. Los Huilliches", "stop_lat": -36.628659, "stop_lon": -72.087313}, {"stop_id": "P-823", "stop_name": "Rosauro Acuña esq. Av. Libertad", "stop_lat": -36.620196, "stop_lon": -72.118943}, {"stop_id": "P-907", "stop_name": "Zañartu esq. Lord Cochrane", "stop_lat": -36.608648, "stop_lon": -72.146083}, {"stop_id": "P-647", "stop_name": "Las Rosas esq. Pje. Tres", "stop_lat": -36.594994, "stop_lon": -72.11303}, {"stop_id": "P-658", "stop_name": "Lautaro esq. Los Sauces", "stop_lat": -36.628913, "stop_lon": -72.089199}, {"stop_id": "P-832", "stop_name": "Rosauro Acuña esq. Santa Maria", "stop_lat": -36.620296, "stop_lon": -72.107281}, {"stop_id": "P-566", "stop_name": "Fray Domingo de Guzmán esq. San Francisco Coll", "stop_lat": -36.605467, "stop_lon": -72.064906}, {"stop_id": "P-294", "stop_name": "Av. Nueva Poniente esq. Parque Nacional Fray Jorge", "stop_lat": -36.589932, "stop_lon": -72.118982}, {"stop_id": "P-504", "stop_name": "Diego Portales esq. Av. Coihueco", "stop_lat": -36.607533, "stop_lon": -72.088212}, {"stop_id": "P-398", "stop_name": "Camino Las Mariposas esq. El Jardín", "stop_lat": -36.630577, "stop_lon": -72.043426}, {"stop_id": "P-484", "stop_name": "Cordillera esq. La Quebrada", "stop_lat": -36.619547, "stop_lon": -72.080772}, {"stop_id": "P-645", "stop_name": "Las Rosas esq. Los Picunches", "stop_lat": -36.610728, "stop_lon": -72.082349}, {"stop_id": "P-642", "stop_name": "Las Rosas esq. Calle Arboleda", "stop_lat": -36.594168, "stop_lon": -72.112412}, {"stop_id": "P-284", "stop_name": "Av. Nueva Oriente esq. Cerro Roble", "stop_lat": -36.617918, "stop_lon": -72.07662}, {"stop_id": "P-505", "stop_name": "Diego Portales esq. Chorrillos", "stop_lat": -36.607439, "stop_lon": -72.090264}, {"stop_id": "P-117", "stop_name": "Av. Argentina esq. Libertad", "stop_lat": -36.60824, "stop_lon": -72.093088}, {"stop_id": "P-320", "stop_name": "Barcelona esq. Av. Andrés Bello", "stop_lat": -36.591552, "stop_lon": -72.068659}, {"stop_id": "P-326", "stop_name": "Barros Arana esq. Dos Sur", "stop_lat": -36.624764, "stop_lon": -72.098654}, {"stop_id": "P-78", "stop_name": "Av. Alonso De Ercilla esq. Los Puelches", "stop_lat": -36.625101, "stop_lon": -72.086814}, {"stop_id": "P-723", "stop_name": "Luis Araneda esq. Pasaje Humanidad", "stop_lat": -36.628118, "stop_lon": -72.137759}, {"stop_id": "P-568", "stop_name": "Galvarino esq. Caupolicán", "stop_lat": -36.625307, "stop_lon": -72.096041}, {"stop_id": "P-702", "stop_name": "Los Huilliches esq. Los Tolomiros", "stop_lat": -36.628388, "stop_lon": -72.084361}, {"stop_id": "P-156", "stop_name": "Av. Brasil esq. Constitucion", "stop_lat": -36.605467, "stop_lon": -72.112003}, {"stop_id": "P-863", "stop_name": "San Luis Beltrán esq. Santa Catalina de Ricci", "stop_lat": -36.605683, "stop_lon": -72.061962}, {"stop_id": "P-124", "stop_name": "Av. Baquedano esq. 25 de Septiembre", "stop_lat": -36.62986, "stop_lon": -72.124916}, {"stop_id": "P-828", "stop_name": "Rosauro Acuña esq. Palermo", "stop_lat": -36.620644, "stop_lon": -72.11039}, {"stop_id": "P-711", "stop_name": "Los Puelches esq. Cordillera", "stop_lat": -36.61853, "stop_lon": -72.085531}, {"stop_id": "P-893", "stop_name": "Variante Collin esq. Barros Arana", "stop_lat": -36.61888, "stop_lon": -72.095389}, {"stop_id": "P-356", "stop_name": "Calle Los Pidenes esq. Calle Reino de Chile", "stop_lat": -36.628671, "stop_lon": -72.11698}, {"stop_id": "P-116", "stop_name": "Av. Argentina esq. Las Acacias", "stop_lat": -36.611612, "stop_lon": -72.094081}, {"stop_id": "P-179", "stop_name": "Av. Coihueco esq. Chacabuco", "stop_lat": -36.604839, "stop_lon": -72.081881}, {"stop_id": "P-507", "stop_name": "Eduardo Parra esq. Ejercito de Chile", "stop_lat": -36.60589, "stop_lon": -72.116484}, {"stop_id": "P-524", "stop_name": "El Volcán esq. Monterrico", "stop_lat": -36.620596, "stop_lon": -72.079158}, {"stop_id": "P-816", "stop_name": "Río Viejo esq. Los Pehuenches", "stop_lat": -36.630457, "stop_lon": -72.090542}, {"stop_id": "P-882", "stop_name": "Superintendente Enrique Torres esq. Vicesuperintendente Baldini", "stop_lat": -36.591323, "stop_lon": -72.113954}, {"stop_id": "P-914", "stop_name": "Camino Parque Lantaño esq. Caletera", "stop_lat": -36.589765, "stop_lon": -72.125442}, {"stop_id": "P-766", "stop_name": "Nueva Sur esq. Los Nardos", "stop_lat": -36.630034, "stop_lon": -72.099077}, {"stop_id": "P-377", "stop_name": "Camino A Las Mariposas esq. Pje. La Cabaña", "stop_lat": -36.634247, "stop_lon": -72.015141}, {"stop_id": "P-837", "stop_name": "Ruta N-515 esq. Santa Catalina de Siena", "stop_lat": -36.609438, "stop_lon": -72.064997}, {"stop_id": "P-741", "stop_name": "Maipon esq. Banco Estado", "stop_lat": -36.610846, "stop_lon": -72.099824}, {"stop_id": "P-609", "stop_name": "Isabel Riquelme esq. Cocharcas", "stop_lat": -36.612914, "stop_lon": -72.101574}, {"stop_id": "P-194", "stop_name": "Av. Ecuador esq. Arauco", "stop_lat": -36.599957, "stop_lon": -72.100641}, {"stop_id": "P-840", "stop_name": "Ruta N66 esq. Los Alerces", "stop_lat": -36.609666, "stop_lon": -72.242059}, {"stop_id": "P-280", "stop_name": "Av. Mariscal Ruíz esq. Luis del Fierro", "stop_lat": -36.605736, "stop_lon": -72.121473}, {"stop_id": "P-238", "stop_name": "Av. Libertadior O'Higgins esq. Motel", "stop_lat": -36.577446, "stop_lon": -72.100475}, {"stop_id": "P-381", "stop_name": "Camino A Las Mariposas esq. Pje. Rosa Ester", "stop_lat": -36.629355, "stop_lon": -72.051579}, {"stop_id": "P-700", "stop_name": "Los Huilliches esq. Los Cipreses", "stop_lat": -36.628536, "stop_lon": -72.087353}, {"stop_id": "P-686", "stop_name": "Los Andes esq. Volcan Nahuelbuta", "stop_lat": -36.622136, "stop_lon": -72.083727}, {"stop_id": "P-452", "stop_name": "Cerro Torres del Paine esq. Cerro Santa Lucía", "stop_lat": -36.614985, "stop_lon": -72.074618}, {"stop_id": "P-385", "stop_name": "Camino A Las Mariposas esq. U. Adventista De Chile", "stop_lat": -36.638546, "stop_lon": -71.996898}, {"stop_id": "P-154", "stop_name": "Av. Brasil esq. Bulnes", "stop_lat": -36.603296, "stop_lon": -72.111158}, {"stop_id": "P-542", "stop_name": "Esmeralda esq. Vicuña Mackenna", "stop_lat": -36.61882, "stop_lon": -72.09193}, {"stop_id": "P-710", "stop_name": "Los Puelches esq. Alonso De Ercilla", "stop_lat": -36.624751, "stop_lon": -72.087464}, {"stop_id": "P-773", "stop_name": "Pablo Neruda esq. Ñuble", "stop_lat": -36.53926, "stop_lon": -72.08393}, {"stop_id": "P-537", "stop_name": "Erasmo Escala esq. Marchant", "stop_lat": -36.620781, "stop_lon": -72.125702}, {"stop_id": "P-876", "stop_name": "Simón Bolivar esq. Colchagua", "stop_lat": -36.608606, "stop_lon": -72.131545}, {"stop_id": "P-737", "stop_name": "Maipon esq. 18 De Septiembre", "stop_lat": -36.609567, "stop_lon": -72.105108}, {"stop_id": "P-327", "stop_name": "Barros Arana esq. Eduardo Ossandon", "stop_lat": -36.635161, "stop_lon": -72.101821}, {"stop_id": "P-674", "stop_name": "Longitudinal Sur esq. Pedro San Martin", "stop_lat": -36.595863, "stop_lon": -72.105044}, {"stop_id": "P-96", "stop_name": "Av. Antartica Chilena esq. 21 De Mayo", "stop_lat": -36.609693, "stop_lon": -72.144386}, {"stop_id": "P-518", "stop_name": "El Roble esq. Isabel Riquelme", "stop_lat": -36.609676, "stop_lon": -72.099533}, {"stop_id": "P-532", "stop_name": "Erasmo Escala esq. Cornelia Olivares", "stop_lat": -36.632309, "stop_lon": -72.128721}, {"stop_id": "P-76", "stop_name": "Av. Alonso De Ercilla esq. Los Cerezos", "stop_lat": -36.625321, "stop_lon": -72.083783}, {"stop_id": "P-228", "stop_name": "Av. La Castilla esq. Universidad Del Bio-Bio", "stop_lat": -36.612026, "stop_lon": -72.119457}, {"stop_id": "P-703", "stop_name": "Los Mapuches esq. Av. Alonso De Ercilla", "stop_lat": -36.625934, "stop_lon": -72.083284}, {"stop_id": "P-271", "stop_name": "Av. Mariscal Ruiz De Gamboa esq. Cuatro Sur", "stop_lat": -36.615246, "stop_lon": -72.129114}, {"stop_id": "P-369", "stop_name": "Camino A Las Mariposas esq. Km 4.5", "stop_lat": -36.634755, "stop_lon": -72.012146}, {"stop_id": "P-619", "stop_name": "Juan de Dios Olivares esq. Av. La Concepción", "stop_lat": -36.604706, "stop_lon": -72.088633}, {"stop_id": "P-231", "stop_name": "Av. Libertad esq. 5 De Abril", "stop_lat": -36.606551, "stop_lon": -72.10134}, {"stop_id": "P-249", "stop_name": "Av. Libertador O'Higgins esq. Cocharcas", "stop_lat": -36.610305, "stop_lon": -72.110656}, {"stop_id": "P-362", "stop_name": "Camino A Las Mariposas esq. Colegio Camilo Henriquez", "stop_lat": -36.634215, "stop_lon": -72.017629}, {"stop_id": "P-198", "stop_name": "Av. Ecuador esq. Av. O'Higgins", "stop_lat": -36.5981769, "stop_lon": -72.107812}, {"stop_id": "P-885", "stop_name": "Tarapacá esq. Av. Antártica Chilena", "stop_lat": -36.605777, "stop_lon": -72.124612}, {"stop_id": "P-428", "stop_name": "Central Panificadores esq. Cerro Aracar", "stop_lat": -36.614872, "stop_lon": -72.071828}, {"stop_id": "P-599", "stop_name": "Huape salida", "stop_lat": -36.60947, "stop_lon": -72.269047}, {"stop_id": "P-165", "stop_name": "Av. Brasil esq. Vega De Saldias", "stop_lat": -36.601884, "stop_lon": -72.110632}, {"stop_id": "P-64", "stop_name": "Av. Alonso de Ercilla esq. El Almendral", "stop_lat": -36.62705, "stop_lon": -72.063086}, {"stop_id": "P-65", "stop_name": "Av. Alonso de Ercilla esq. El Campo", "stop_lat": -36.630766, "stop_lon": -72.042756}, {"stop_id": "P-10", "stop_name": "20 de agosto esq. Domingo Ortiz", "stop_lat": -36.617048, "stop_lon": -72.130997}, {"stop_id": "P-728", "stop_name": "Luis Araneda esq. Virrey Don Ambrosio", "stop_lat": -36.620819, "stop_lon": -72.135173}, {"stop_id": "P-248", "stop_name": "Av. Libertador O'Higgins esq. Coca cola", "stop_lat": -36.564672, "stop_lon": -72.096501}, {"stop_id": "P-509", "stop_name": "Eduardo Parra Sandoval esq. Vera Suárez", "stop_lat": -36.605018, "stop_lon": -72.119492}, {"stop_id": "P-137", "stop_name": "Av. Baquedano esq. Supermercado Santa Rita", "stop_lat": -36.638303, "stop_lon": -72.131665}, {"stop_id": "P-495", "stop_name": "Del Rosario esq. Solidaridad", "stop_lat": -36.629131, "stop_lon": -72.136503}, {"stop_id": "P-213", "stop_name": "Av. España esq. Uno Norte", "stop_lat": -36.615207, "stop_lon": -72.087333}, {"stop_id": "P-871", "stop_name": "Sepulveda Bustos esq. Cementerio Municipal", "stop_lat": -36.604269, "stop_lon": -72.124647}, {"stop_id": "P-196", "stop_name": "Av. Ecuador esq. Av. Argentina", "stop_lat": -36.602175, "stop_lon": -72.091617}, {"stop_id": "P-627", "stop_name": "Lago Lanalhue esq. Av. Santa Rufina", "stop_lat": -36.613123, "stop_lon": -72.077387}, {"stop_id": "P-21", "stop_name": "5 De Abril esq. Maipon", "stop_lat": -36.610884, "stop_lon": -72.102322}, {"stop_id": "P-693", "stop_name": "Los Copihues esq. Madrid", "stop_lat": -36.626609, "stop_lon": -72.107991}, {"stop_id": "P-189", "stop_name": "Av. Collin esq. Isabel Riquelme", "stop_lat": -36.615762, "stop_lon": -72.101733}, {"stop_id": "P-547", "stop_name": "Eulogio Bañares esq. Juan José Gazmuri", "stop_lat": -36.619857, "stop_lon": -72.115634}, {"stop_id": "P-264", "stop_name": "Av. Los Puelches esq. Los Juncos", "stop_lat": -36.610929, "stop_lon": -72.082241}, {"stop_id": "P-93", "stop_name": "Av. Andrés Bello esq. Museo Marta Colvin", "stop_lat": -36.599714, "stop_lon": -72.076357}, {"stop_id": "P-515", "stop_name": "El Nevado esq. Quinchamalí", "stop_lat": -36.606497, "stop_lon": -72.079681}, {"stop_id": "P-325", "stop_name": "Barros Arana esq. Crisantemos", "stop_lat": -36.633207, "stop_lon": -72.101302}, {"stop_id": "P-729", "stop_name": "Luis Arellano esq. Av. Real Audiencia", "stop_lat": -36.61398, "stop_lon": -72.133158}, {"stop_id": "P-606", "stop_name": "Isabel Riquelme esq. Av. Libertad", "stop_lat": -36.606467, "stop_lon": -72.099112}, {"stop_id": "P-306", "stop_name": "Av. Vicente Mendez esq. Calle Republica", "stop_lat": -36.599826, "stop_lon": -72.089251}, {"stop_id": "P-541", "stop_name": "Esmeralda esq. Monterrico", "stop_lat": -36.621886, "stop_lon": -72.078315}, {"stop_id": "P-615", "stop_name": "Jerusalén esq. Betel", "stop_lat": -36.636455, "stop_lon": -72.088676}, {"stop_id": "P-11", "stop_name": "20 de agosto esq. General Velásquez", "stop_lat": -36.619087, "stop_lon": -72.131633}, {"stop_id": "P-468", "stop_name": "Conde del Maule esq. Erasmo Escala", "stop_lat": -36.627831, "stop_lon": -72.127843}, {"stop_id": "P-7", "stop_name": "20 de agosto esq. Conde del Maule", "stop_lat": -36.626481, "stop_lon": -72.133543}, {"stop_id": "P-874", "stop_name": "Siete Sur esq. Los Espinos", "stop_lat": -36.626752, "stop_lon": -72.101491}, {"stop_id": "P-70", "stop_name": "Av. Alonso De Ercilla esq. Las Crisalidas", "stop_lat": -36.625544, "stop_lon": -72.081146}, {"stop_id": "P-77", "stop_name": "Av. Alonso De Ercilla esq. Los Nisperos", "stop_lat": -36.625228, "stop_lon": -72.086139}, {"stop_id": "P-275", "stop_name": "Av. Mariscal Ruíz esq- Av. Los Corregidores", "stop_lat": -36.612279, "stop_lon": -72.126744}, {"stop_id": "P-255", "stop_name": "Av. Los Corregidores esq. Dos Poniente", "stop_lat": -36.613367, "stop_lon": -72.125469}, {"stop_id": "P-493", "stop_name": "Crucero esq. Cristóbal Colón", "stop_lat": -36.618088, "stop_lon": -72.092592}, {"stop_id": "P-850", "stop_name": "Ruta N66 esq. Villa Iraira", "stop_lat": -36.613074, "stop_lon": -72.180938}, {"stop_id": "P-778", "stop_name": "Panamericana Sur esq. Manuel Castillo V.", "stop_lat": -36.518062, "stop_lon": -72.055364}, {"stop_id": "P-166", "stop_name": "Av. Cabildo esq. Cardenal José María Caro", "stop_lat": -36.61348, "stop_lon": -72.120656}, {"stop_id": "P-552", "stop_name": "Flores Millán esq. Huinganal", "stop_lat": -36.583439, "stop_lon": -72.081213}, {"stop_id": "P-333", "stop_name": "Barros Arana esq. Rio Viejo", "stop_lat": -36.626832, "stop_lon": -72.09967}, {"stop_id": "P-295", "stop_name": "Av. Nuevo Oriente esq. Cerro Santa Lucía", "stop_lat": -36.616242, "stop_lon": -72.076115}, {"stop_id": "P-26", "stop_name": "Alcalde Flores Millan esq. Manuel Rodriguez", "stop_lat": -36.594621, "stop_lon": -72.091053}, {"stop_id": "P-40", "stop_name": "Ángel Parra esq. Marchant", "stop_lat": -36.620752, "stop_lon": -72.130393}, {"stop_id": "P-801", "stop_name": "Punta Gruesa esq. Av. La Concepción", "stop_lat": -36.605243, "stop_lon": -72.085394}, {"stop_id": "P-838", "stop_name": "Ruta N66 esq. Cementerio Huape", "stop_lat": -36.610307, "stop_lon": -72.229637}, {"stop_id": "P-704", "stop_name": "Los Mapuches esq. Los Alacalufes", "stop_lat": -36.627415, "stop_lon": -72.083182}, {"stop_id": "P-390", "stop_name": "Camino a San Bernardo esq. Cerro El León", "stop_lat": -36.608229, "stop_lon": -72.069072}, {"stop_id": "P-355", "stop_name": "Calle Las Canoas esq. Pasaje Los Pidenes", "stop_lat": -36.628678, "stop_lon": -72.118237}, {"stop_id": "P-830", "stop_name": "Rosauro Acuña esq. Pedro Aguirre Cerda", "stop_lat": -36.620211, "stop_lon": -72.107824}, {"stop_id": "P-521", "stop_name": "El Tejar esq. Av. O'Higgins", "stop_lat": -36.618134, "stop_lon": -72.119012}, {"stop_id": "P-695", "stop_name": "Los Espinos esq. Los Alerces", "stop_lat": -36.62771, "stop_lon": -72.103302}, {"stop_id": "P-612", "stop_name": "Isabel Riquelme esq. Contitucion", "stop_lat": -36.607935, "stop_lon": -72.099709}, {"stop_id": "P-161", "stop_name": "Av. Brasil esq. Gamero", "stop_lat": -36.600077, "stop_lon": -72.10996}, {"stop_id": "P-364", "stop_name": "Camino A Las Mariposas esq. Km 2", "stop_lat": -36.631251, "stop_lon": -72.038387}, {"stop_id": "P-879", "stop_name": "Simón Bolívar esq. Matta Hurtado", "stop_lat": -36.609464, "stop_lon": -72.136805}, {"stop_id": "P-756", "stop_name": "Mario Vergara esq. Los Huilliches", "stop_lat": -36.612334, "stop_lon": -72.088018}, {"stop_id": "P-764", "stop_name": "Nueva Sur esq. Barros Arana", "stop_lat": -36.630002, "stop_lon": -72.100756}, {"stop_id": "P-144", "stop_name": "Av. Bernardo O Higgins esq. Mariano Egama", "stop_lat": -36.622672, "stop_lon": -72.129089}, {"stop_id": "P-776", "stop_name": "Panamericana Sur esq. Calle 3", "stop_lat": -36.539674, "stop_lon": -72.085657}, {"stop_id": "P-130", "stop_name": "Av. Baquedano esq. Gabriela Mistral", "stop_lat": -36.640236, "stop_lon": -72.134687}, {"stop_id": "P-834", "stop_name": "Ruta 5 Sur esq. Tenencia Carreteras", "stop_lat": -36.541739, "stop_lon": -72.088092}, {"stop_id": "P-604", "stop_name": "Isabel Riquelme esq. Arturo Prat", "stop_lat": -36.612498, "stop_lon": -72.101418}, {"stop_id": "P-636", "stop_name": "Las Margaritas esq. Barros Arana", "stop_lat": -36.631195, "stop_lon": -72.100302}, {"stop_id": "P-675", "stop_name": "Longitudinal Sur esq. Terminal De Buses Maria Teresa", "stop_lat": -36.59701, "stop_lon": -72.105774}, {"stop_id": "P-303", "stop_name": "Av. Reino de Chile esq. Pasaje El Comendador", "stop_lat": -36.630538, "stop_lon": -72.111987}, {"stop_id": "P-20", "stop_name": "5 de abril esq. Constitución", "stop_lat": -36.608536, "stop_lon": -72.101446}, {"stop_id": "P-176", "stop_name": "Av. Circunvalacion Oriente esq. El Arroyo", "stop_lat": -36.606481, "stop_lon": -72.066096}, {"stop_id": "P-409", "stop_name": "Camino Parque Lantaño esq. Av. Nueva Poniente", "stop_lat": -36.591067, "stop_lon": -72.122922}, {"stop_id": "P-457", "stop_name": "Cerro Torres del Paine esq. Los Picunches", "stop_lat": -36.61316, "stop_lon": -72.074117}, {"stop_id": "P-481", "stop_name": "Constitución esq. Sargento Aldea", "stop_lat": -36.608732, "stop_lon": -72.097538}, {"stop_id": "P-459", "stop_name": "Chacabuco esq. Alberto Hurtado", "stop_lat": -36.604319, "stop_lon": -72.082456}, {"stop_id": "P-151", "stop_name": "Av. Bernardo O'Higgins esq. Av. El Tejar", "stop_lat": -36.618155, "stop_lon": -72.118138}, {"stop_id": "P-417", "stop_name": "Cataluña esq. Lago Lanalhue", "stop_lat": -36.612506, "stop_lon": -72.080122}, {"stop_id": "P-5", "stop_name": "18 De Septiembre esq. Colegio Concepcion De Chillan", "stop_lat": -36.603248, "stop_lon": -72.10286}, {"stop_id": "P-862", "stop_name": "San Ignacio esq. Río Viejo", "stop_lat": -36.631167, "stop_lon": -72.08837}, {"stop_id": "P-128", "stop_name": "Av. Baquedano esq. Entrada a Santuario", "stop_lat": -36.634507, "stop_lon": -72.126056}, {"stop_id": "P-229", "stop_name": "Av. Libertad esq. 18 De Septiembre", "stop_lat": -36.605806, "stop_lon": -72.104402}, {"stop_id": "P-441", "stop_name": "Cerro Negro esq. Cerro Apoquindo", "stop_lat": -36.615061, "stop_lon": -72.077218}, {"stop_id": "P-771", "stop_name": "Orozimbo Barbosa esq. Cornelia Olivares", "stop_lat": -36.631147, "stop_lon": -72.126992}, {"stop_id": "P-242", "stop_name": "Av. Libertador Bernardo O'Higgins esq. Los Jesuitas", "stop_lat": -36.614089, "stop_lon": -72.112545}, {"stop_id": "P-511", "stop_name": "El Nevado esq. Atacalco", "stop_lat": -36.6068, "stop_lon": -72.07826}, {"stop_id": "P-140", "stop_name": "Av. Bernardo O Higgins esq. Cabildo", "stop_lat": -36.622886, "stop_lon": -72.128153}, {"stop_id": "P-206", "stop_name": "Av. Ecuador esq. Isabel Riquelme", "stop_lat": -36.600687, "stop_lon": -72.097681}, {"stop_id": "P-513", "stop_name": "El Nevado esq. El Roble", "stop_lat": -36.607211, "stop_lon": -72.076861}, {"stop_id": "P-9", "stop_name": "20 de Agosto esq. Domingo Ortiz", "stop_lat": -36.617031, "stop_lon": -72.131108}, {"stop_id": "P-829", "stop_name": "Rosauro Acuña esq. Palermo", "stop_lat": -36.620943, "stop_lon": -72.111979}, {"stop_id": "P-25", "stop_name": "Alcalde Flores Millan esq. Las Amapolas", "stop_lat": -36.593117, "stop_lon": -72.089738}, {"stop_id": "P-214", "stop_name": "Av. Francia esq. Padre Alberto Hurtado", "stop_lat": -36.59747, "stop_lon": -72.101706}, {"stop_id": "P-178", "stop_name": "Av. Coihueco esq. Blanco Encalada", "stop_lat": -36.607387, "stop_lon": -72.087324}, {"stop_id": "P-17", "stop_name": "25 de Septiembre esq. La Higuera", "stop_lat": -36.630504, "stop_lon": -72.121499}, {"stop_id": "P-437", "stop_name": "Cerro El León esq. Pje. Cerro Pirigallo", "stop_lat": -36.614049, "stop_lon": -72.070205}, {"stop_id": "P-269", "stop_name": "Av. Mariscal Ruiz De Gamboa esq. Corregidor Alvarado", "stop_lat": -36.614328, "stop_lon": -72.128173}, {"stop_id": "P-34", "stop_name": "Andrés Bello esq. León Cazenave", "stop_lat": -36.600908, "stop_lon": -72.116078}, {"stop_id": "P-110", "stop_name": "Av. Argentina esq. Av. España", "stop_lat": -36.61415, "stop_lon": -72.095032}, {"stop_id": "P-712", "stop_name": "Los Puelches esq. El Volcan", "stop_lat": -36.619492, "stop_lon": -72.085807}, {"stop_id": "P-558", "stop_name": "Flores Millán esq. Pedro de Valdivia", "stop_lat": -36.593043, "stop_lon": -72.089537}, {"stop_id": "P-367", "stop_name": "Camino A Las Mariposas esq. Km 3.2", "stop_lat": -36.633027, "stop_lon": -72.027305}, {"stop_id": "P-902", "stop_name": "Zañartu esq. Aconcagua", "stop_lat": -36.605769, "stop_lon": -72.127847}, {"stop_id": "P-722", "stop_name": "Luis Araneda esq. Juan Martínez", "stop_lat": -36.622524, "stop_lon": -72.135652}, {"stop_id": "P-13", "stop_name": "20 de agosto esq. Tomás Yávar", "stop_lat": -36.624065, "stop_lon": -72.132908}, {"stop_id": "P-159", "stop_name": "Av. Brasil esq. El Roble", "stop_lat": -36.606787, "stop_lon": -72.112498}, {"stop_id": "P-768", "stop_name": "Nueva Sur esq. Pje. Mariano Latorre", "stop_lat": -36.630357, "stop_lon": -72.097495}, {"stop_id": "P-193", "stop_name": "Av. Ecuador esq. Alcalde Flores Millán", "stop_lat": -36.601179, "stop_lon": -72.094719}, {"stop_id": "P-478", "stop_name": "Constitución esq. Independencia", "stop_lat": -36.609104, "stop_lon": -72.096001}, {"stop_id": "P-199", "stop_name": "Av. Ecuador esq. Av. O'Higgins", "stop_lat": -36.598156, "stop_lon": -72.1069}, {"stop_id": "P-462", "stop_name": "Chacabuco esq. Av. La Concepción", "stop_lat": -36.602716, "stop_lon": -72.08595}, {"stop_id": "P-82", "stop_name": "Av. Alonso De Ercilla esq. Ñuble", "stop_lat": -36.625664, "stop_lon": -72.07649}, {"stop_id": "P-53", "stop_name": "Atacama esq. Antártica Chilena", "stop_lat": -36.605985, "stop_lon": -72.125926}, {"stop_id": "P-419", "stop_name": "Central esq. Ámbar", "stop_lat": -36.633675, "stop_lon": -72.083863}, {"stop_id": "P-618", "stop_name": "Jerusalén esq. Nazaret", "stop_lat": -36.63726, "stop_lon": -72.089234}, {"stop_id": "P-793", "stop_name": "Pilcomayo esq. O'Brien", "stop_lat": -36.620705, "stop_lon": -72.089125}, {"stop_id": "P-19", "stop_name": "5 de abril esq. Cocharcas", "stop_lat": -36.613752, "stop_lon": -72.103403}, {"stop_id": "P-894", "stop_name": "Veintiuno de Mayo esq. Av. Antártica Chilena", "stop_lat": -36.609336, "stop_lon": -72.144379}, {"stop_id": "P-237", "stop_name": "Av. Libertad Oriente esq. Cerro Almendrillo", "stop_lat": -36.610334, "stop_lon": -72.072011}, {"stop_id": "P-461", "stop_name": "Chacabuco esq. Av. La Concepción", "stop_lat": -36.602749, "stop_lon": -72.085634}, {"stop_id": "P-447", "stop_name": "Cerro Santa Lucía esq. Cerro Torres del Paine", "stop_lat": -36.616227, "stop_lon": -72.074178}, {"stop_id": "P-706", "stop_name": "Los Mapuches esq. Los Llaretas", "stop_lat": -36.626242, "stop_lon": -72.083207}, {"stop_id": "P-225", "stop_name": "Av. La Castilla esq. Tres Oriente", "stop_lat": -36.611726, "stop_lon": -72.120452}, {"stop_id": "P-401", "stop_name": "Camino Las Mariposas esq. Pje. Zañartu", "stop_lat": -36.634009, "stop_lon": -72.021591}, {"stop_id": "P-204", "stop_name": "Av. Ecuador esq. Francia", "stop_lat": -36.599249, "stop_lon": -72.103525}, {"stop_id": "P-234", "stop_name": "Av. Libertad esq. Carrera", "stop_lat": -36.605388, "stop_lon": -72.106124}, {"stop_id": "P-106", "stop_name": "Av. Antártica Chilena esq. P. Las Casas", "stop_lat": -36.608023, "stop_lon": -72.134226}, {"stop_id": "P-252", "stop_name": "Av. Libertador O'Higgins esq. Easy", "stop_lat": -36.592977, "stop_lon": -72.104287}, {"stop_id": "P-282", "stop_name": "Av. Nueva Oriente esq. Central Panificadores", "stop_lat": -36.614623, "stop_lon": -72.075626}, {"stop_id": "P-180", "stop_name": "Av. Coihueco esq. Manuel Montt", "stop_lat": -36.606088, "stop_lon": -72.085715}, {"stop_id": "P-281", "stop_name": "Av. Mariscal Ruíz esq. Pasaje 12", "stop_lat": -36.598625, "stop_lon": -72.115716}, {"stop_id": "P-235", "stop_name": "Av. Libertad esq. Colegio La Purisima Concepcion", "stop_lat": -36.607732, "stop_lon": -72.096518}, {"stop_id": "P-335", "stop_name": "Barros Arana esq. San Bartolomé", "stop_lat": -36.632851, "stop_lon": -72.101372}, {"stop_id": "P-577", "stop_name": "Gamero esq. Sargento Aldea", "stop_lat": -36.603612, "stop_lon": -72.096923}, {"stop_id": "P-671", "stop_name": "Longitudinal Sur esq. Casino Marina Del Sol", "stop_lat": -36.560729, "stop_lon": -72.095048}, {"stop_id": "P-562", "stop_name": "Francisco Ramirez esq. Av. Coihueco", "stop_lat": -36.608645, "stop_lon": -72.08835}, {"stop_id": "P-414", "stop_name": "Camino Parque Lantaño esq. Santa Rita", "stop_lat": -36.592596, "stop_lon": -72.120201}, {"stop_id": "P-744", "stop_name": "Maipon esq. Mercado De Chillan", "stop_lat": -36.610446, "stop_lon": -72.101482}, {"stop_id": "P-739", "stop_name": "Maipon esq. Arauco", "stop_lat": -36.610004, "stop_lon": -72.103304}, {"stop_id": "P-555", "stop_name": "Flores Millán esq. Las Tranqueras", "stop_lat": -36.58376, "stop_lon": -72.081631}, {"stop_id": "P-751", "stop_name": "Mariano Egana esq. Juan Martinez de Rosas", "stop_lat": -36.624036, "stop_lon": -72.129668}, {"stop_id": "P-701", "stop_name": "Los Huilliches esq. Los Mapuches", "stop_lat": -36.628299, "stop_lon": -72.083398}, {"stop_id": "P-304", "stop_name": "Av. Reino de Chile esq. Pje. Bueras", "stop_lat": -36.630629, "stop_lon": -72.112307}, {"stop_id": "P-276", "stop_name": "Av. Mariscal Ruíz esq. Cardenal José María Caro", "stop_lat": -36.611114, "stop_lon": -72.125615}, {"stop_id": "P-913", "stop_name": "Lenga esq. San Cristobal", "stop_lat": -36.589307, "stop_lon": -72.110859}, {"stop_id": "P-163", "stop_name": "Av. Brasil esq. Maipón", "stop_lat": -36.608563, "stop_lon": -72.113167}, {"stop_id": "P-529", "stop_name": "Enrique Torres esq. Bahamondes", "stop_lat": -36.590869, "stop_lon": -72.115399}, {"stop_id": "P-869", "stop_name": "Seis Sur esq. Dos Oriente", "stop_lat": -36.627536, "stop_lon": -72.098645}, {"stop_id": "P-899", "stop_name": "Yungay esq. Av. Argentina", "stop_lat": -36.602432, "stop_lon": -72.090178}, {"stop_id": "P-339", "stop_name": "Belén esq. Betel", "stop_lat": -36.636905, "stop_lon": -72.087736}, {"stop_id": "P-83", "stop_name": "Av. Alonso De Ercilla esq. Ñuble", "stop_lat": -36.625758, "stop_lon": -72.077432}, {"stop_id": "P-489", "stop_name": "Corregidor Alvarado esq. Luis Arellano", "stop_lat": -36.612656, "stop_lon": -72.131056}, {"stop_id": "P-465", "stop_name": "Chacabuco esq. Iquique", "stop_lat": -36.601711, "stop_lon": -72.088352}, {"stop_id": "P-216", "stop_name": "Av. Francisco Ramirez esq. Av. Coihueco", "stop_lat": -36.608537, "stop_lon": -72.087134}, {"stop_id": "P-95", "stop_name": "Av. Andrés Bello esq. Wessex School", "stop_lat": -36.592596, "stop_lon": -72.070915}, {"stop_id": "P-227", "stop_name": "Av. La Castilla esq. Universidad Del Bio-Bio", "stop_lat": -36.611956, "stop_lon": -72.119284}, {"stop_id": "P-501", "stop_name": "Diego de Almagro esq. Flores Millán", "stop_lat": -36.597022, "stop_lon": -72.093582}, {"stop_id": "P-895", "stop_name": "Vera Suárez esq. Eduardo Parra", "stop_lat": -36.604435, "stop_lon": -72.119016}, {"stop_id": "P-168", "stop_name": "Av. Chile esq. Echaurren", "stop_lat": -36.619083, "stop_lon": -72.100439}, {"stop_id": "P-182", "stop_name": "Av. Coihueco esq. Punta Gruesa", "stop_lat": -36.605816, "stop_lon": -72.084656}, {"stop_id": "P-512", "stop_name": "El Nevado esq. Cerro Leon", "stop_lat": -36.609354, "stop_lon": -72.069183}, {"stop_id": "P-330", "stop_name": "Barros Arana esq. Los Boldos", "stop_lat": -36.626013, "stop_lon": -72.099378}, {"stop_id": "P-29", "stop_name": "Alcántara esq. Barcelona", "stop_lat": -36.594392, "stop_lon": -72.068864}, {"stop_id": "P-35", "stop_name": "Angel Custodio Oyarzun esq. Rodrigo De Quiroga", "stop_lat": -36.622194, "stop_lon": -72.099247}, {"stop_id": "P-664", "stop_name": "Lincoyan esq. Caupolican", "stop_lat": -36.625874, "stop_lon": -72.094806}, {"stop_id": "P-265", "stop_name": "Av. Los Puelches esq. Pasaje Sur", "stop_lat": -36.614256, "stop_lon": -72.084167}, {"stop_id": "P-423", "stop_name": "Central esq. Tres Oriente", "stop_lat": -36.615665, "stop_lon": -72.093148}, {"stop_id": "P-391", "stop_name": "Camino a San Bernardo esq. Cobquecura", "stop_lat": -36.607327, "stop_lon": -72.072102}, {"stop_id": "P-878", "stop_name": "Simón Bolivar esq. Malleco", "stop_lat": -36.610333, "stop_lon": -72.142386}, {"stop_id": "P-668", "stop_name": "Loma Blanca esq. Quinquehua", "stop_lat": -36.629329, "stop_lon": -72.070687}, {"stop_id": "P-579", "stop_name": "General Cruz esq. Miraflores", "stop_lat": -36.603657, "stop_lon": -72.087121}, {"stop_id": "P-43", "stop_name": "Ángol esq. Pueblo Seco", "stop_lat": -36.629947, "stop_lon": -72.076985}, {"stop_id": "P-696", "stop_name": "Los Espinos esq. Los Espinos", "stop_lat": -36.627538, "stop_lon": -72.10316}, {"stop_id": "P-774", "stop_name": "Pablo Neruda esq. Ruta 5", "stop_lat": -36.538102, "stop_lon": -72.082538}, {"stop_id": "P-332", "stop_name": "Barros Arana esq. Nueva Sur", "stop_lat": -36.630586, "stop_lon": -72.101}, {"stop_id": "P-920", "stop_name": "Camino Ñuble Alto esq. Camino San Luis", "stop_lat": -36.584673, "stop_lon": -72.130176}, {"stop_id": "P-379", "stop_name": "Camino A Las Mariposas esq. Pje. Los Acacios", "stop_lat": -36.644179, "stop_lon": -71.975721}, {"stop_id": "P-114", "stop_name": "Av. Argentina esq. Gamero", "stop_lat": -36.604691, "stop_lon": -72.091741}, {"stop_id": "P-270", "stop_name": "Av. Mariscal Ruiz De Gamboa esq. Cuatro Sur", "stop_lat": -36.614964, "stop_lon": -72.12907}, {"stop_id": "P-134", "stop_name": "Av. Baquedano esq. Pablo Neruda", "stop_lat": -36.638646, "stop_lon": -72.13202}, {"stop_id": "P-402", "stop_name": "Camino Las Mariposas esq. San Bernardo", "stop_lat": -36.632565, "stop_lon": -72.031309}, {"stop_id": "P-814", "stop_name": "Rio Viejo esq. Lincoyan", "stop_lat": -36.628714, "stop_lon": -72.09485}, {"stop_id": "P-108", "stop_name": "Av. Antártica Chilena esq. Valparaíso", "stop_lat": -36.607228, "stop_lon": -72.129244}, {"stop_id": "P-331", "stop_name": "Barros Arana esq. Nueva Sur", "stop_lat": -36.629177, "stop_lon": -72.100877}, {"stop_id": "P-639", "stop_name": "Las Rosas esq. Av. Libertad Oriente", "stop_lat": -36.608359, "stop_lon": -72.08156}, {"stop_id": "P-583", "stop_name": "Huambal esq. Av. Reino de Chile", "stop_lat": -36.630351, "stop_lon": -72.107187}, {"stop_id": "P-853", "stop_name": "San Alberto esq. Santa Lucía", "stop_lat": -36.587301, "stop_lon": -72.070335}, {"stop_id": "P-267", "stop_name": "Av. Mariscal Ruiz De Gamboa esq. Cardenal Caro", "stop_lat": -36.610968, "stop_lon": -72.125764}, {"stop_id": "P-806", "stop_name": "Reino de Chile esq. Los Litres", "stop_lat": -36.631318, "stop_lon": -72.123213}, {"stop_id": "P-396", "stop_name": "Camino Colonia esq. Río Itata", "stop_lat": -36.583551, "stop_lon": -72.072526}, {"stop_id": "P-592", "stop_name": "Huambalí esq. Echaurren", "stop_lat": -36.617891, "stop_lon": -72.104644}, {"stop_id": "P-48", "stop_name": "Arauco esq. Vega de Saldías", "stop_lat": -36.604125, "stop_lon": -72.101623}, {"stop_id": "P-169", "stop_name": "Av. Chile esq. Echaurren", "stop_lat": -36.618576, "stop_lon": -72.100362}, {"stop_id": "P-653", "stop_name": "Lautaro esq. Lincoyan", "stop_lat": -36.627433, "stop_lon": -72.093965}, {"stop_id": "P-905", "stop_name": "Zañartu esq. Coquimbo", "stop_lat": -36.605919, "stop_lon": -72.127985}, {"stop_id": "P-222", "stop_name": "Av. La Castilla esq. Liceo Martin Ruiz De Gamboa", "stop_lat": -36.612555, "stop_lon": -72.11561}, {"stop_id": "P-403", "stop_name": "Camino Las Mariposas Km 2.5", "stop_lat": -36.631904, "stop_lon": -72.034633}, {"stop_id": "P-652", "stop_name": "Lautaro esq. Leucoton", "stop_lat": -36.626956, "stop_lon": -72.095217}, {"stop_id": "P-431", "stop_name": "Cerro Aracar esq. Av. Libertad Oriente", "stop_lat": -36.610939, "stop_lon": -72.070797}, {"stop_id": "P-516", "stop_name": "El Nevado esq. Quinchamalí", "stop_lat": -36.606259, "stop_lon": -72.080099}, {"stop_id": "P-59", "stop_name": "Av. Alonso De Ercilla esq. Barros Arana", "stop_lat": -36.623774, "stop_lon": -72.097196}, {"stop_id": "P-679", "stop_name": "Lord Cochrane esq. Simón Bolívar", "stop_lat": -36.610333, "stop_lon": -72.145414}, {"stop_id": "P-113", "stop_name": "Av. Argentina esq. Francisco Ramirez", "stop_lat": -36.608309, "stop_lon": -72.092801}, {"stop_id": "P-49", "stop_name": "Arturo Prat esq. 18 De Septiembre", "stop_lat": -36.610787, "stop_lon": -72.105982}, {"stop_id": "P-824", "stop_name": "Rosauro Acuña esq. Central", "stop_lat": -36.620969, "stop_lon": -72.113933}, {"stop_id": "P-368", "stop_name": "Camino A Las Mariposas esq. Km 3.5", "stop_lat": -36.63375, "stop_lon": -72.023106}, {"stop_id": "P-87", "stop_name": "Av. Alonso de Ercilla esq. Río Duqueco", "stop_lat": -36.626542, "stop_lon": -72.065338}, {"stop_id": "P-616", "stop_name": "Jerusalén esq. Génesis", "stop_lat": -36.636598, "stop_lon": -72.088904}, {"stop_id": "P-747", "stop_name": "Maipon esq. Santiago Aldea", "stop_lat": -36.609982, "stop_lon": -72.097144}, {"stop_id": "P-45", "stop_name": "Ángol esq. San Nicolás", "stop_lat": -36.627013, "stop_lon": -72.075988}, {"stop_id": "P-531", "stop_name": "Erasmo Escala esq. Conde del Maule", "stop_lat": -36.628074, "stop_lon": -72.127616}, {"stop_id": "P-426", "stop_name": "Central Panificadores esq. Cataluña", "stop_lat": -36.613881, "stop_lon": -72.078851}, {"stop_id": "P-831", "stop_name": "Rosauro Acuña esq. Pedro Aguirre Cerda", "stop_lat": -36.620571, "stop_lon": -72.109233}, {"stop_id": "P-317", "stop_name": "Av. Vicente Mendez esq. Universidad De Concepcion", "stop_lat": -36.596087, "stop_lon": -72.086941}, {"stop_id": "P-190", "stop_name": "Av. Collin esq. Sargento Aldea", "stop_lat": -36.616125, "stop_lon": -72.101569}, {"stop_id": "P-119", "stop_name": "Av. Argentina esq. Maipón", "stop_lat": -36.612751, "stop_lon": -72.094512}, {"stop_id": "P-796", "stop_name": "Pueblo Seco esq. Loma Blanca", "stop_lat": -36.631345, "stop_lon": -72.07201}, {"stop_id": "P-781", "stop_name": "Parque Queulat esq. San Cristóbal", "stop_lat": -36.59172, "stop_lon": -72.113164}, {"stop_id": "P-898", "stop_name": "Volcán Nahuelbuta esq. Los Andes", "stop_lat": -36.621823, "stop_lon": -72.082799}, {"stop_id": "P-570", "stop_name": "Galvarino esq. Lautaro", "stop_lat": -36.626247, "stop_lon": -72.096463}, {"stop_id": "P-273", "stop_name": "Av. Mariscal Ruiz De Gamboa esq. Los Corregidores", "stop_lat": -36.612964, "stop_lon": -72.127015}, {"stop_id": "P-15", "stop_name": "21 De Mayo esq. Eduardo Parra Sandoval", "stop_lat": -36.605898, "stop_lon": -72.117186}, {"stop_id": "P-549", "stop_name": "Flores Millán esq. Av. Portal del Libertador", "stop_lat": -36.585662, "stop_lon": -72.083106}, {"stop_id": "P-418", "stop_name": "Central esq. 2 Oriente", "stop_lat": -36.615394, "stop_lon": -72.093989}, {"stop_id": "P-170", "stop_name": "Av. Chile esq. Rodrigo de Quiroga", "stop_lat": -36.620507, "stop_lon": -72.101114}, {"stop_id": "P-313", "stop_name": "Av. Vicente Mendéz esq. IP Virgnio Goméz", "stop_lat": -36.58902, "stop_lon": -72.081805}, {"stop_id": "P-340", "stop_name": "Belén esq. Juan Bautista", "stop_lat": -36.63823, "stop_lon": -72.088791}, {"stop_id": "P-600", "stop_name": "Independencia esq. Bulnes", "stop_lat": -36.605842, "stop_lon": -72.095599}, {"stop_id": "P-651", "stop_name": "Las Termas esq. Volcán San Pablo", "stop_lat": -36.61923, "stop_lon": -72.078105}, {"stop_id": "P-908", "stop_name": "Zañartu esq. Ñuble", "stop_lat": -36.607478, "stop_lon": -72.138598}, {"stop_id": "P-138", "stop_name": "Av. Bernardo O Higgins esq. Cabildo", "stop_lat": -36.622863, "stop_lon": -72.127634}, {"stop_id": "P-125", "stop_name": "Av. Baquedano esq. Cabildo", "stop_lat": -36.63779, "stop_lon": -72.130689}, {"stop_id": "P-628", "stop_name": "Lago Lanalhue esq. Av. Santa Rufina", "stop_lat": -36.612904, "stop_lon": -72.077837}, {"stop_id": "P-559", "stop_name": "Francia esq. Av. Ecuador", "stop_lat": -36.598514, "stop_lon": -72.101696}, {"stop_id": "P-52", "stop_name": "Arturo Prat esq. Plaza La Victoria", "stop_lat": -36.609866, "stop_lon": -72.109827}, {"stop_id": "P-859", "stop_name": "San Ignacio esq. Calle Sur", "stop_lat": -36.632588, "stop_lon": -72.089282}, {"stop_id": "P-683", "stop_name": "Los Andes esq. Av. Nueva Oriente", "stop_lat": -36.623085, "stop_lon": -72.078583}, {"stop_id": "P-897", "stop_name": "Volcán Nahuelbuta esq. El Volcán", "stop_lat": -36.620441, "stop_lon": -72.082368}, {"stop_id": "P-573", "stop_name": "Gamero esq. 5 de abril", "stop_lat": -36.602948, "stop_lon": -72.099639}, {"stop_id": "P-31", "stop_name": "Alcázar esq. La Escala", "stop_lat": -36.593909, "stop_lon": -72.065595}, {"stop_id": "P-621", "stop_name": "Juan de Dios Olivares esq. Miraflores", "stop_lat": -36.604701, "stop_lon": -72.087655}, {"stop_id": "P-387", "stop_name": "Camino A Las Mariposas esq. Villa Don Ambrosio", "stop_lat": -36.630174, "stop_lon": -72.046249}, {"stop_id": "P-629", "stop_name": "LAgo Lanalhue esq. Cataluña", "stop_lat": -36.612481, "stop_lon": -72.079363}, {"stop_id": "P-181", "stop_name": "Av. Coihueco esq. Museo Marta Colvin", "stop_lat": -36.599529, "stop_lon": -72.076343}, {"stop_id": "P-14", "stop_name": "21 de mayo esq. Eduardo Parra", "stop_lat": -36.604853, "stop_lon": -72.116934}, {"stop_id": "P-191", "stop_name": "Av. Dr. Sepúlveda esq. Santa Amelia", "stop_lat": -36.603921, "stop_lon": -72.117348}, {"stop_id": "P-247", "stop_name": "Av. Libertador O'Higgins", "stop_lat": -36.618932, "stop_lon": -72.119594}, {"stop_id": "P-425", "stop_name": "Central Panificadores esq. Av. Santa Rufina", "stop_lat": -36.613726, "stop_lon": -72.079739}, {"stop_id": "P-292", "stop_name": "Av. Nueva Oriente esq. Piscinas", "stop_lat": -36.615074, "stop_lon": -72.075931}, {"stop_id": "P-458", "stop_name": "Cerro Torres del Paine esq. Los Picunches", "stop_lat": -36.613002, "stop_lon": -72.073905}, {"stop_id": "P-605", "stop_name": "Isabel Riquelme esq. Av. Collin", "stop_lat": -36.615115, "stop_lon": -72.102399}, {"stop_id": "P-742", "stop_name": "Maipon esq. Claudio Arrau", "stop_lat": -36.608945, "stop_lon": -72.107672}, {"stop_id": "P-188", "stop_name": "Av. Collin esq. Barros Arana", "stop_lat": -36.616929, "stop_lon": -72.098247}, {"stop_id": "P-91", "stop_name": "Av. Andrés Bello esq. Camino a San Bernardo", "stop_lat": -36.60437, "stop_lon": -72.080819}, {"stop_id": "P-903", "stop_name": "Zañartu esq. Bilbao", "stop_lat": -36.607179, "stop_lon": -72.135944}, {"stop_id": "P-239", "stop_name": "Av. Libertador Bernardo O'Higgins esq. Av. Collin", "stop_lat": -36.614025, "stop_lon": -72.112121}, {"stop_id": "P-782", "stop_name": "Paula Jaraquemada esq. Avenida Baquedano", "stop_lat": -36.63306, "stop_lon": -72.127147}, {"stop_id": "P-434", "stop_name": "Cerro Constancia esq. Cerro Santa Lucía", "stop_lat": -36.6154, "stop_lon": -72.073377}, {"stop_id": "P-436", "stop_name": "Cerro El León esq. Cerro Los Morros", "stop_lat": -36.611846, "stop_lon": -72.069851}, {"stop_id": "P-563", "stop_name": "Francisco Ramirez esq. Cesfam Violeta Parra", "stop_lat": -36.608635, "stop_lon": -72.08975}, {"stop_id": "P-602", "stop_name": "Independencia esq. Maipón", "stop_lat": -36.610995, "stop_lon": -72.097522}, {"stop_id": "P-103", "stop_name": "Av. Antártica Chilena esq. Esc. República Portugal", "stop_lat": -36.606867, "stop_lon": -72.12754}, {"stop_id": "P-638", "stop_name": "Las Margaritas esq. Los Avellanos", "stop_lat": -36.631328, "stop_lon": -72.099744}, {"stop_id": "P-310", "stop_name": "Av. Vicente Mendez esq. Diego De Almagro", "stop_lat": -36.599404, "stop_lon": -72.088869}, {"stop_id": "P-843", "stop_name": "Ruta N66 esq. Motel", "stop_lat": -36.612693, "stop_lon": -72.201887}, {"stop_id": "P-690", "stop_name": "Los Cóndores esq. Cordillera", "stop_lat": -36.619162, "stop_lon": -72.081487}, {"stop_id": "P-614", "stop_name": "Isabel Riquelme esq. Purén", "stop_lat": -36.613889, "stop_lon": -72.101939}, {"stop_id": "P-765", "stop_name": "Nueva Sur esq. Los Espinos", "stop_lat": -36.62986, "stop_lon": -72.103509}, {"stop_id": "P-564", "stop_name": "Francisco Ramirez esq. Hospital Clinico Herminda M.", "stop_lat": -36.608628, "stop_lon": -72.091518}, {"stop_id": "P-794", "stop_name": "Prol. Uruguay esq. Zañartu", "stop_lat": -36.604592, "stop_lon": -72.121228}, {"stop_id": "P-319", "stop_name": "Barcelona esq. Alcántara", "stop_lat": -36.591744, "stop_lon": -72.068113}, {"stop_id": "P-296", "stop_name": "Av. Puente Ñuble esq. Las Camelias", "stop_lat": -36.543645, "stop_lon": -72.086412}, {"stop_id": "P-263", "stop_name": "Av. Los Puelches esq. Esmeralda", "stop_lat": -36.620662, "stop_lon": -72.086261}, {"stop_id": "P-553", "stop_name": "Flores Millán esq. La Espiga", "stop_lat": -36.589675, "stop_lon": -72.086593}, {"stop_id": "P-887", "stop_name": "Terminal UN01", "stop_lat": -36.610083, "stop_lon": -72.268332}, {"stop_id": "P-886", "stop_name": "Tarapacá esq. Zañartu", "stop_lat": -36.6059, "stop_lon": -72.124468}, {"stop_id": "P-883", "stop_name": "Superintendente Luís Antini esq. Comandante Rivera", "stop_lat": -36.591956, "stop_lon": -72.117644}, {"stop_id": "P-131", "stop_name": "Av. Baquedano esq. La Union", "stop_lat": -36.639114, "stop_lon": -72.132925}, {"stop_id": "P-719", "stop_name": "Luis Araneda esq. Calle del Rosario", "stop_lat": -36.628582, "stop_lon": -72.138151}, {"stop_id": "P-527", "stop_name": "Emmanuel esq. San Francisco De Asis", "stop_lat": -36.588132, "stop_lon": -72.072822}, {"stop_id": "P-865", "stop_name": "Santa Blanca esq. Cabildo", "stop_lat": -36.614389, "stop_lon": -72.121768}, {"stop_id": "P-115", "stop_name": "Av. Argentina esq. Juan De Dios Olivares", "stop_lat": -36.604654, "stop_lon": -72.091431}, {"stop_id": "P-800", "stop_name": "Punta Gruesa esq. Av. Coihueco", "stop_lat": -36.605834, "stop_lon": -72.083837}, {"stop_id": "P-37", "stop_name": "Angel Parra esq. Av. Bernardo O Higgins", "stop_lat": -36.622966, "stop_lon": -72.130966}, {"stop_id": "P-661", "stop_name": "Libertad Oriente esq. Cerro Tronquitos", "stop_lat": -36.610626, "stop_lon": -72.071009}, {"stop_id": "P-813", "stop_name": "Río Viejo esq. Leucotón", "stop_lat": -36.628131, "stop_lon": -72.096}, {"stop_id": "P-727", "stop_name": "Luis Araneda esq. Tomás Yavar", "stop_lat": -36.623934, "stop_lon": -72.136004}, {"stop_id": "P-101", "stop_name": "Av. Antártica Chilena esq. Colchagua", "stop_lat": -36.607621, "stop_lon": -72.131699}, {"stop_id": "P-691", "stop_name": "Los Copihues esq. Albacete", "stop_lat": -36.626368, "stop_lon": -72.108448}, {"stop_id": "P-261", "stop_name": "Av. Los Puelches esq. Cordillera", "stop_lat": -36.617215, "stop_lon": -72.08527}, {"stop_id": "P-322", "stop_name": "Barros Arana esq. Almirante Riveros", "stop_lat": -36.621936, "stop_lon": -72.096496}, {"stop_id": "P-487", "stop_name": "Cordillera esq. Palena", "stop_lat": -36.619036, "stop_lon": -72.08314}, {"stop_id": "P-571", "stop_name": "Gamero esq. 18 De Septiembre", "stop_lat": -36.602343, "stop_lon": -72.102123}, {"stop_id": "P-491", "stop_name": "Corregidor Alvarado esq. Siete Poniente", "stop_lat": -36.61505, "stop_lon": -72.124344}, {"stop_id": "P-922", "stop_name": "San Cristobal esq. Pasaje Zeus", "stop_lat": -36.590806, "stop_lon": -72.111883}, {"stop_id": "P-788", "stop_name": "Pedro Aguirre Cerda esq. Estadio Bicentenario", "stop_lat": -36.617537, "stop_lon": -72.10869}, {"stop_id": "P-557", "stop_name": "Flores Millán esq. Paul Harris", "stop_lat": -36.590143, "stop_lon": -72.087146}, {"stop_id": "P-408", "stop_name": "Camino Parque Lantaño esq. Av. Nueva Poniente", "stop_lat": -36.591392, "stop_lon": -72.122535}, {"stop_id": "P-687", "stop_name": "Los Avellanos esq. Las Margaritas", "stop_lat": -36.630759, "stop_lon": -72.098813}, {"stop_id": "P-699", "stop_name": "Los Huilliches esq. Diagonal Las Termas", "stop_lat": -36.628621, "stop_lon": -72.085144}, {"stop_id": "P-904", "stop_name": "Zañartu esq. Colchagua", "stop_lat": -36.606775, "stop_lon": -72.13337}, {"stop_id": "P-643", "stop_name": "Las Rosas esq. Las Lilas", "stop_lat": -36.607699, "stop_lon": -72.081229}, {"stop_id": "P-378", "stop_name": "Camino A Las Mariposas esq. Pje. La Quinta", "stop_lat": -36.641214, "stop_lon": -71.987729}, {"stop_id": "P-740", "stop_name": "Maipon esq. Av. Brasil", "stop_lat": -36.607809, "stop_lon": -72.112356}, {"stop_id": "P-680", "stop_name": "Los Alerces esq. 25 de Septiembre", "stop_lat": -36.631195, "stop_lon": -72.122484}, {"stop_id": "P-258", "stop_name": "Av. Los Puelches esq. Azapa", "stop_lat": -36.623382, "stop_lon": -72.086946}, {"stop_id": "P-220", "stop_name": "Av. La Castilla esq. La Colonia", "stop_lat": -36.611046, "stop_lon": -72.121913}, {"stop_id": "P-779", "stop_name": "Panamericana Sur esq. Puente Ñuble Norte", "stop_lat": -36.544792, "stop_lon": -72.091151}, {"stop_id": "P-624", "stop_name": "La Colonia esq. Corregidor Alvarado", "stop_lat": -36.61565, "stop_lon": -72.125996}, {"stop_id": "P-314", "stop_name": "Av. Vicente Mendez esq. Jose Vallejos", "stop_lat": -36.592925, "stop_lon": -72.085311}, {"stop_id": "P-221", "stop_name": "Av. La Castilla esq. La Colonia", "stop_lat": -36.611183, "stop_lon": -72.121369}, {"stop_id": "P-847", "stop_name": "Ruta N66 esq. Vibro Sur", "stop_lat": -36.610761, "stop_lon": -72.166124}, {"stop_id": "P-799", "stop_name": "Punta Gruesa esq. Aníbal Pinto", "stop_lat": -36.605364, "stop_lon": -72.0852}, {"stop_id": "P-634", "stop_name": "Las Lilas esq. Estero Las Toscas", "stop_lat": -36.606562, "stop_lon": -72.082007}, {"stop_id": "P-129", "stop_name": "Av. Baquedano esq. Gabriela Mistral", "stop_lat": -36.640135, "stop_lon": -72.134345}, {"stop_id": "P-440", "stop_name": "Cerro León esq. Pje. Cerro Las Tapias", "stop_lat": -36.610237, "stop_lon": -72.069206}, {"stop_id": "P-485", "stop_name": "Cordillera esq. Los Coligues", "stop_lat": -36.619568, "stop_lon": -72.080237}, {"stop_id": "P-646", "stop_name": "Las Rosas esq. Parque Queulat", "stop_lat": -36.592617, "stop_lon": -72.111632}, {"stop_id": "P-873", "stop_name": "Sepúlveda Bustos esq. Frigorífico San José", "stop_lat": -36.609715, "stop_lon": -72.159592}, {"stop_id": "P-884", "stop_name": "Superintendente Torres esq. Vicesuperintendente Baldini", "stop_lat": -36.591115, "stop_lon": -72.114933}, {"stop_id": "P-786", "stop_name": "Pedro Aguirre Cerda esq. Av. Collin", "stop_lat": -36.615256, "stop_lon": -72.107931}, {"stop_id": "P-250", "stop_name": "Av. Libertador O'Higgins esq. Cocharcas", "stop_lat": -36.61121, "stop_lon": -72.110874}, {"stop_id": "P-569", "stop_name": "Galvarino esq. Lautaro", "stop_lat": -36.626738, "stop_lon": -72.096872}, {"stop_id": "P-291", "stop_name": "Av. Nueva Oriente esq. Pallachata", "stop_lat": -36.622432, "stop_lon": -72.078023}, {"stop_id": "P-483", "stop_name": "Cordillera esq. El Renegado", "stop_lat": -36.619142, "stop_lon": -72.082216}, {"stop_id": "P-734", "stop_name": "Madrid esq. Pamplona", "stop_lat": -36.623712, "stop_lon": -72.106264}, {"stop_id": "P-102", "stop_name": "Av. Antártica Chilena esq. Esc. República Portugal", "stop_lat": -36.606941, "stop_lon": -72.127429}, {"stop_id": "P-858", "stop_name": "San Ignacio esq. Calle Sur", "stop_lat": -36.631816, "stop_lon": -72.088889}, {"stop_id": "P-175", "stop_name": "Av. Circunvalación Oriente esq. Brisas Mediterráneas", "stop_lat": -36.607595, "stop_lon": -72.066907}, {"stop_id": "P-449", "stop_name": "Cerro Torres Del Paine esq. Cerro Los Morros", "stop_lat": -36.611812, "stop_lon": -72.073719}, {"stop_id": "P-730", "stop_name": "Luis Del Fierro esq. Reconquista", "stop_lat": -36.606217, "stop_lon": -72.119348}, {"stop_id": "P-496", "stop_name": "Del Rosario esq. Solidaridad", "stop_lat": -36.629215, "stop_lon": -72.136713}, {"stop_id": "P-463", "stop_name": "Chacabuco esq. Geronimo Michael", "stop_lat": -36.603822, "stop_lon": -72.083284}, {"stop_id": "P-54", "stop_name": "Atacama esq. Av. Dr. Sepúlveda", "stop_lat": -36.605064, "stop_lon": -72.126034}, {"stop_id": "P-299", "stop_name": "Av. Reino de Chile esq. 4 Poniente", "stop_lat": -36.630452, "stop_lon": -72.10564}, {"stop_id": "P-132", "stop_name": "Av. Baquedano esq. Los Avellanos", "stop_lat": -36.630268, "stop_lon": -72.125137}, {"stop_id": "P-370", "stop_name": "Camino A Las Mariposas esq. Km 7.3", "stop_lat": -36.642351, "stop_lon": -71.98293}, {"stop_id": "P-51", "stop_name": "Arturo Prat esq. Carrera", "stop_lat": -36.610443, "stop_lon": -72.107398}, {"stop_id": "P-508", "stop_name": "Eduardo Parra Sandoval esq. 21 De Mayo", "stop_lat": -36.605691, "stop_lon": -72.116822}, {"stop_id": "P-384", "stop_name": "Camino A Las Mariposas esq. Torrente", "stop_lat": -36.630182, "stop_lon": -72.046839}, {"stop_id": "P-715", "stop_name": "Los Puelches esq. Volcan Chillan", "stop_lat": -36.622104, "stop_lon": -72.08657}, {"stop_id": "P-822", "stop_name": "Rodrigo Quiroga esq. Av. Chile", "stop_lat": -36.621243, "stop_lon": -72.101245}, {"stop_id": "P-792", "stop_name": "Pilcomayo esq. La Candelaria", "stop_lat": -36.620656, "stop_lon": -72.089595}, {"stop_id": "P-397", "stop_name": "Camino Colonia esq. San Carlos", "stop_lat": -36.584512, "stop_lon": -72.073269}, {"stop_id": "P-88", "stop_name": "Av. Alonso de Ercilla esq. Río Polcura", "stop_lat": -36.626152, "stop_lon": -72.067108}, {"stop_id": "P-33", "stop_name": "Andres Bello esq. Central", "stop_lat": -36.59976, "stop_lon": -72.115904}, {"stop_id": "P-38", "stop_name": "Ángel Parra esq. Conde del Maule", "stop_lat": -36.627442, "stop_lon": -72.132129}, {"stop_id": "P-556", "stop_name": "Flores Millán esq. Manuel Rodríguez", "stop_lat": -36.595887, "stop_lon": -72.092006}, {"stop_id": "P-525", "stop_name": "El Volcán esq. Volcán Parinacota", "stop_lat": -36.620316, "stop_lon": -72.080563}, {"stop_id": "P-868", "stop_name": "Seis Sur esq. Barros Arana", "stop_lat": -36.626909, "stop_lon": -72.101032}, {"stop_id": "P-755", "stop_name": "Mariano Egaña esq. Tomás Yávar", "stop_lat": -36.625735, "stop_lon": -72.130115}, {"stop_id": "P-187", "stop_name": "Av. Collin esq. Arauco", "stop_lat": -36.614996, "stop_lon": -72.104886}, {"stop_id": "P-155", "stop_name": "Av. Brasil esq. Cocharcas", "stop_lat": -36.610917, "stop_lon": -72.114055}, {"stop_id": "P-266", "stop_name": "Av. Los Puelches esq. Reloncaví", "stop_lat": -36.617011, "stop_lon": -72.085093}, {"stop_id": "P-842", "stop_name": "Ruta N66 esq. Motel", "stop_lat": -36.61259, "stop_lon": -72.201914}, {"stop_id": "P-336", "stop_name": "Barros Arana esq. Seis Sur", "stop_lat": -36.628097, "stop_lon": -72.100304}, {"stop_id": "P-105", "stop_name": "Av. Antartica Chilena esq. Ñuble", "stop_lat": -36.608806, "stop_lon": -72.1392}, {"stop_id": "P-337", "stop_name": "Barros Arana esq. Uno Sur", "stop_lat": -36.624346, "stop_lon": -72.098276}, {"stop_id": "P-71", "stop_name": "Av. Alonso De Ercilla esq. Las Margaritas", "stop_lat": -36.625608, "stop_lon": -72.079936}, {"stop_id": "P-861", "stop_name": "San Ignacio esq. Nahuel", "stop_lat": -36.633957, "stop_lon": -72.090641}, {"stop_id": "P-685", "stop_name": "Los Andes esq. Volcán Antillanca", "stop_lat": -36.621885, "stop_lon": -72.085448}, {"stop_id": "P-380", "stop_name": "Camino A Las Mariposas esq. Pje. Los Alerces", "stop_lat": -36.640968, "stop_lon": -71.988229}, {"stop_id": "P-323", "stop_name": "Barros Arana esq. Almirante Riveros", "stop_lat": -36.620946, "stop_lon": -72.095976}, {"stop_id": "P-852", "stop_name": "San Alberto esq. Acceso A Camino A Cato", "stop_lat": -36.585903, "stop_lon": -72.074019}, {"stop_id": "P-126", "stop_name": "Av. Baquedano esq. Cabildo", "stop_lat": -36.637839, "stop_lon": -72.130946}, {"stop_id": "P-789", "stop_name": "Pedro Aguirre Cerda esq. Estadio Municipal", "stop_lat": -36.61788, "stop_lon": -72.108917}, {"stop_id": "P-85", "stop_name": "Av. Alonso de Ercilla esq. Pasaje El Sauce", "stop_lat": -36.628984, "stop_lon": -72.053948}, {"stop_id": "P-421", "stop_name": "Central esq. Norte", "stop_lat": -36.615998, "stop_lon": -72.089275}, {"stop_id": "P-257", "stop_name": "Av. Los Puelches esq. Av. Inglaterra", "stop_lat": -36.615788, "stop_lon": -72.084773}, {"stop_id": "P-289", "stop_name": "Av. Nueva Oriente esq. Las Termas", "stop_lat": -36.61981, "stop_lon": -72.077235}, {"stop_id": "P-473", "stop_name": "Constitucion esq. Arauco", "stop_lat": -36.607508, "stop_lon": -72.102586}, {"stop_id": "P-721", "stop_name": "Luis Araneda esq. Conde del Maule", "stop_lat": -36.62601, "stop_lon": -72.136547}, {"stop_id": "P-617", "stop_name": "Jerusalén esq. Juan Bautista", "stop_lat": -36.637697, "stop_lon": -72.089663}, {"stop_id": "P-448", "stop_name": "Cerro Torres del Paine esq. Cerro Condell", "stop_lat": -36.611288, "stop_lon": -72.073389}, {"stop_id": "P-334", "stop_name": "Barros Arana esq. Rodrigo de Quiroga", "stop_lat": -36.622911, "stop_lon": -72.097365}, {"stop_id": "P-506", "stop_name": "Eduardo Ossandon esq. Alberto Orrego Luco", "stop_lat": -36.635223, "stop_lon": -72.100704}, {"stop_id": "P-659", "stop_name": "Lautaro esq. Los Suaces", "stop_lat": -36.62882, "stop_lon": -72.089116}, {"stop_id": "P-63", "stop_name": "Av. Alonso De Ercilla esq. Colo Colo", "stop_lat": -36.623889, "stop_lon": -72.097061}, {"stop_id": "P-371", "stop_name": "Camino A Las Mariposas esq. Km 7.3", "stop_lat": -36.64222, "stop_lon": -71.983062}, {"stop_id": "P-202", "stop_name": "Av. Ecuador esq. Esmeralda", "stop_lat": -36.601701, "stop_lon": -72.092606}, {"stop_id": "P-57", "stop_name": "Av. Alonso De Ercilla esq. Av. Circunvalacion", "stop_lat": -36.625593, "stop_lon": -72.070476}, {"stop_id": "P-400", "stop_name": "Camino Las Mariposas esq. Pje. Los Guindos", "stop_lat": -36.633377, "stop_lon": -72.025685}, {"stop_id": "P-519", "stop_name": "El Roble esq. Yerbas Buenas", "stop_lat": -36.610522, "stop_lon": -72.096035}, {"stop_id": "P-635", "stop_name": "Las Lilas esq. Las Rosas", "stop_lat": -36.606671, "stop_lon": -72.081906}, {"stop_id": "P-849", "stop_name": "Ruta N66 esq. Villa Esperanza", "stop_lat": -36.611756, "stop_lon": -72.172874}, {"stop_id": "P-670", "stop_name": "Longitudinal Sur esq. Arturo Matte", "stop_lat": -36.594929, "stop_lon": -72.105004}, {"stop_id": "P-593", "stop_name": "Huambalí esq. Echaurren", "stop_lat": -36.618771, "stop_lon": -72.105124}, {"stop_id": "P-361", "stop_name": "Camino A Las Mariposas esq. Calle Los Guindos", "stop_lat": -36.633471, "stop_lon": -72.024603}, {"stop_id": "P-482", "stop_name": "Cordillera esq. Av. Los Puelches", "stop_lat": -36.618362, "stop_lon": -72.084496}, {"stop_id": "P-438", "stop_name": "Cerro El León esq.- Pje. Cerro Pirigallo", "stop_lat": -36.613484, "stop_lon": -72.070152}, {"stop_id": "P-376", "stop_name": "Camino A Las Mariposas esq. Nueva Ercilla", "stop_lat": -36.629632, "stop_lon": -72.050597}, {"stop_id": "P-309", "stop_name": "Av. Vicente Mendéz esq. Colegio Concepción", "stop_lat": -36.59459, "stop_lon": -72.086231}, {"stop_id": "P-28", "stop_name": "Alcántara esq. Alcázar", "stop_lat": -36.593064, "stop_lon": -72.067987}, {"stop_id": "P-490", "stop_name": "Corregidor Alvarado esq. Seis Poniente", "stop_lat": -36.613282, "stop_lon": -72.129627}, {"stop_id": "P-386", "stop_name": "Camino A Las Mariposas esq. U. Adventista De Chile", "stop_lat": -36.638538, "stop_lon": -71.99723}, {"stop_id": "P-662", "stop_name": "Libertad Oriente esq. Pje. Cerro Tortola", "stop_lat": -36.61066, "stop_lon": -72.070307}, {"stop_id": "P-278", "stop_name": "Av. Mariscal Ruíz esq. Fernando de Aragón", "stop_lat": -36.597695, "stop_lon": -72.114843}, {"stop_id": "P-259", "stop_name": "Av. Los Puelches esq. Central Panificadores", "stop_lat": -36.612754, "stop_lon": -72.083347}, {"stop_id": "P-666", "stop_name": "Loma Blanca esq. La Viñita", "stop_lat": -36.63013, "stop_lon": -72.070815}, {"stop_id": "P-104", "stop_name": "Av. Antártica Chilena esq. Linares", "stop_lat": -36.608371, "stop_lon": -72.136486}, {"stop_id": "P-648", "stop_name": "Las Termas esq. El Cobre", "stop_lat": -36.607766, "stop_lon": -72.07459}, {"stop_id": "P-348", "stop_name": "Cabildo esq. Santa Blanca", "stop_lat": -36.6145, "stop_lon": -72.121149}, {"stop_id": "P-389", "stop_name": "Camino a San Bernardo esq. Cerro El León", "stop_lat": -36.60836, "stop_lon": -72.069027}, {"stop_id": "P-435", "stop_name": "Cerro El León esq. Cerro El Padre", "stop_lat": -36.614749, "stop_lon": -72.07053}, {"stop_id": "P-805", "stop_name": "Real Audiencia esq. Luis Arellano", "stop_lat": -36.615465, "stop_lon": -72.129909}, {"stop_id": "P-911", "stop_name": "Zañartu esq. Valparaíso", "stop_lat": -36.606329, "stop_lon": -72.130583}, {"stop_id": "P-667", "stop_name": "Loma Blanca esq. Las Quilas", "stop_lat": -36.627248, "stop_lon": -72.070064}, {"stop_id": "P-514", "stop_name": "El Nevado esq. Maipú", "stop_lat": -36.607318, "stop_lon": -72.076825}, {"stop_id": "P-833", "stop_name": "Ruta 5 Sur esq. Libertad", "stop_lat": -36.537913, "stop_lon": -72.083574}, {"stop_id": "P-660", "stop_name": "Libertad Oriente esq. Cerro Torres Del Paine", "stop_lat": -36.61032, "stop_lon": -72.072592}, {"stop_id": "P-94", "stop_name": "Av. Andrés Bello esq. UBB", "stop_lat": -36.602139, "stop_lon": -72.07822}, {"stop_id": "P-50", "stop_name": "Arturo Prat esq. 5 De Abril", "stop_lat": -36.611366, "stop_lon": -72.103605}, {"stop_id": "P-298", "stop_name": "Av. Quinta Agrícola esq. Camino Colonia", "stop_lat": -36.582457, "stop_lon": -72.072963}, {"stop_id": "P-67", "stop_name": "Av. Alonso de Ercilla esq. Galvarino", "stop_lat": -36.624265, "stop_lon": -72.094331}, {"stop_id": "P-318", "stop_name": "Av. Vicente Mendez esq. Universidad De Concepcion", "stop_lat": -36.596247, "stop_lon": -72.087152}, {"stop_id": "P-469", "stop_name": "Conde del Maule esq. Las Canoas", "stop_lat": -36.629399, "stop_lon": -72.119411}, {"stop_id": "P-347", "stop_name": "Bulnes esq. Yerbas Buenas", "stop_lat": -36.606802, "stop_lon": -72.094499}, {"stop_id": "P-27", "stop_name": "Alcalde Francisco Arrau esq. Bombero Lagos", "stop_lat": -36.618095, "stop_lon": -72.114297}, {"stop_id": "P-90", "stop_name": "Av. Alonso De Ercilla esq. Sydney College", "stop_lat": -36.625656, "stop_lon": -72.077943}, {"stop_id": "P-324", "stop_name": "Barros Arana esq. Barros Arana", "stop_lat": -36.62043, "stop_lon": -72.09559}, {"stop_id": "P-226", "stop_name": "Av. La Castilla esq. Tres Poniente", "stop_lat": -36.610258, "stop_lon": -72.123365}, {"stop_id": "P-896", "stop_name": "Vicuña Mackenna esq. Esmeralda", "stop_lat": -36.619531, "stop_lon": -72.091318}, {"stop_id": "P-749", "stop_name": "Manuel Rodriguez esq. Padre Alberto Hurtado", "stop_lat": -36.592469, "stop_lon": -72.096578}, {"stop_id": "P-160", "stop_name": "Av. Brasil esq. Gamero", "stop_lat": -36.60001, "stop_lon": -72.1104}, {"stop_id": "P-466", "stop_name": "Conde del Maule", "stop_lat": -36.627509, "stop_lon": -72.130006}, {"stop_id": "P-328", "stop_name": "Barros Arana esq. Las Margaritas", "stop_lat": -36.631026, "stop_lon": -72.101164}, {"stop_id": "P-502", "stop_name": "Diego de Almagro esq. Francia", "stop_lat": -36.594, "stop_lon": -72.100664}, {"stop_id": "P-183", "stop_name": "Av. Coihueco esq. Punta Gruesa", "stop_lat": -36.605245, "stop_lon": -72.083315}, {"stop_id": "P-709", "stop_name": "Los Pidenes esq. Las Canoas", "stop_lat": -36.628593, "stop_lon": -72.117537}, {"stop_id": "P-203", "stop_name": "Av. Ecuador esq. Fermin Vivaceta", "stop_lat": -36.600342, "stop_lon": -72.098112}, {"stop_id": "P-925", "stop_name": "Las Rosas esq. Parque Puyehue", "stop_lat": -36.591753, "stop_lon": -72.111107}, {"stop_id": "P-1", "stop_name": "11 Oriente esq. Dos Norte", "stop_lat": -36.61398, "stop_lon": -72.088586}, {"stop_id": "P-61", "stop_name": "Av. Alonso De Ercilla esq. Colegio Ciudad Educativa", "stop_lat": -36.628217, "stop_lon": -72.057394}, {"stop_id": "P-111", "stop_name": "Av. Argentina esq. Blanco Encalada", "stop_lat": -36.605826, "stop_lon": -72.091871}, {"stop_id": "P-772", "stop_name": "Orozimbo Barboza esq. 25 de Septiembre", "stop_lat": -36.628787, "stop_lon": -72.12638}, {"stop_id": "P-809", "stop_name": "Río Chillán esq. Topacio", "stop_lat": -36.632856, "stop_lon": -72.082689}, {"stop_id": "P-47", "stop_name": "Arauco esq. Av. Libertad", "stop_lat": -36.605667, "stop_lon": -72.10219}, {"stop_id": "P-254", "stop_name": "Av. Libertador O'Higgins esq. Purén", "stop_lat": -36.611797, "stop_lon": -72.111206}, {"stop_id": "P-393", "stop_name": "Camino A San Bernardo esq. San Bernardo", "stop_lat": -36.606882, "stop_lon": -72.073565}, {"stop_id": "P-366", "stop_name": "Camino A Las Mariposas esq. Km 3", "stop_lat": -36.632557, "stop_lon": -72.030955}, {"stop_id": "P-23", "stop_name": "Agustín de Eyzaguirre esq. Demetrio O'Higgins", "stop_lat": -36.627692, "stop_lon": -72.110896}, {"stop_id": "P-382", "stop_name": "Camino A Las Mariposas esq. Pje. San Nicolás", "stop_lat": -36.634046, "stop_lon": -72.020471}, {"stop_id": "P-854", "stop_name": "San Bartolomé esq. Diamante", "stop_lat": -36.635195, "stop_lon": -72.089793}, {"stop_id": "P-644", "stop_name": "Las Rosas esq. Las Lilas", "stop_lat": -36.607, "stop_lon": -72.081051}, {"stop_id": "L14", "stop_name": "Terminal L14", "stop_lat": -36.61157, "stop_lon": -72.058137}, {"stop_id": "P-641", "stop_name": "Las Rosas esq. Calle Arboleda", "stop_lat": -36.593787, "stop_lon": -72.112314}, {"stop_id": "P-433", "stop_name": "Cerro Constancia esq. Cerro Posada", "stop_lat": -36.611789, "stop_lon": -72.072134}, {"stop_id": "P-860", "stop_name": "San Ignacio esq. Magnetita", "stop_lat": -36.633017, "stop_lon": -72.089797}, {"stop_id": "P-346", "stop_name": "Bulnes esq. Sargento Aldea", "stop_lat": -36.606215, "stop_lon": -72.096881}, {"stop_id": "P-177", "stop_name": "Av. Circunvalación Oriente esq. El Arroyo", "stop_lat": -36.605887, "stop_lon": -72.066207}, {"stop_id": "P-344", "stop_name": "Bueras esq. Diego de Almagro", "stop_lat": -36.595177, "stop_lon": -72.094662}, {"stop_id": "P-763", "stop_name": "Nueva Sur esq. Barros Arana", "stop_lat": -36.629944, "stop_lon": -72.101509}, {"stop_id": "P-718", "stop_name": "Luis Araneda esq. Calle Cornelio Olivares", "stop_lat": -36.62969, "stop_lon": -72.138645}, {"stop_id": "P-316", "stop_name": "Av. Vicente Mendez esq. Universidad De Concepcion", "stop_lat": -36.594885, "stop_lon": -72.086275}, {"stop_id": "P-121", "stop_name": "Av. Argentina esq. Poblacion Iansa", "stop_lat": -36.610267, "stop_lon": -72.093574}, {"stop_id": "P-98", "stop_name": "Av. Antartica Chilena esq. Av. Mariscal Ruiz De G.", "stop_lat": -36.606143, "stop_lon": -72.122396}, {"stop_id": "P-678", "stop_name": "Longitudinal Sur esq. Universidad Pedro De Valdivia", "stop_lat": -36.568549, "stop_lon": -72.097483}, {"stop_id": "P-921", "stop_name": "Camino Parque Lantaño esq. Km 2", "stop_lat": -36.589077, "stop_lon": -72.127138}, {"stop_id": "P-807", "stop_name": "Reloncaví esq. Palena", "stop_lat": -36.616992, "stop_lon": -72.08261}, {"stop_id": "P-153", "stop_name": "Av. Brasil esq. Av. Libertad", "stop_lat": -36.603405, "stop_lon": -72.111666}, {"stop_id": "P-866", "stop_name": "Santa Catalina de Ricci esq. San Francisco Coll", "stop_lat": -36.604483, "stop_lon": -72.064557}, {"stop_id": "P-240", "stop_name": "Av. Libertador Bernardo O'Higgins esq. Bombero Lagos", "stop_lat": -36.616754, "stop_lon": -72.116038}, {"stop_id": "P-688", "stop_name": "Los Avellanos esq. Los Litres", "stop_lat": -36.631688, "stop_lon": -72.124483}, {"stop_id": "P-791", "stop_name": "Pilcomayo esq. Chañarcillo", "stop_lat": -36.621784, "stop_lon": -72.087445}, {"stop_id": "P-576", "stop_name": "Gamero esq. Isabel Riquelme", "stop_lat": -36.603423, "stop_lon": -72.097317}, {"stop_id": "P-162", "stop_name": "Av. Brasil esq. Itata", "stop_lat": -36.598769, "stop_lon": -72.109936}, {"stop_id": "P-815", "stop_name": "Rio Viejo esq. Los Araucanos", "stop_lat": -36.630035, "stop_lon": -72.092648}, {"stop_id": "P-297", "stop_name": "Av. Puente Ñuble esq. Posta", "stop_lat": -36.54196, "stop_lon": -72.084663}, {"stop_id": "P-290", "stop_name": "Av. Nueva Oriente esq. Los Andes", "stop_lat": -36.622846, "stop_lon": -72.078264}, {"stop_id": "P-692", "stop_name": "Los Copihues esq. La Trilla", "stop_lat": -36.626299, "stop_lon": -72.108974}, {"stop_id": "L3", "stop_name": "Terminal L3", "stop_lat": -36.640375, "stop_lon": -72.134728}, {"stop_id": "P-241", "stop_name": "Av. Libertador Bernardo O'Higgins esq. Gazmuri", "stop_lat": -36.616876, "stop_lon": -72.116528}, {"stop_id": "P-864", "stop_name": "Santa Amelia esq. Santa Rosa", "stop_lat": -36.602611, "stop_lon": -72.118221}, {"stop_id": "P-277", "stop_name": "Av. Mariscal Ruíz esq. Fernando de Aragón", "stop_lat": -36.597445, "stop_lon": -72.114777}, {"stop_id": "P-587", "stop_name": "Huambalí esq. Av. Collin", "stop_lat": -36.6161, "stop_lon": -72.103665}, {"stop_id": "P-565", "stop_name": "Fray Domingo de Guzmán esq. Fray Juan Macías", "stop_lat": -36.605908, "stop_lon": -72.063132}, {"stop_id": "P-22", "stop_name": "Constitución esq. Isabel Riquelme", "stop_lat": -36.608403, "stop_lon": -72.098903}, {"stop_id": "P-224", "stop_name": "Av. La Castilla esq. Siete Oriente", "stop_lat": -36.612209, "stop_lon": -72.118056}, {"stop_id": "P-404", "stop_name": "Camino Las Mariposas km 4.5", "stop_lat": -36.634852, "stop_lon": -72.012117}, {"stop_id": "P-705", "stop_name": "Los Mapuches esq. Los Huilliches", "stop_lat": -36.627756, "stop_lon": -72.08321}, {"stop_id": "P-545", "stop_name": "Estero Lluanco esq. Av. Las Torres", "stop_lat": -36.626718, "stop_lon": -72.064111}, {"stop_id": "P-212", "stop_name": "Av. España esq. 7 Oriente", "stop_lat": -36.614803, "stop_lon": -72.090972}, {"stop_id": "P-315", "stop_name": "Av. Vicente Mendez esq. Jumbo", "stop_lat": -36.590841, "stop_lon": -72.083875}, {"stop_id": "P-760", "stop_name": "Monterrico esq. Volcan Licancabur", "stop_lat": -36.62322, "stop_lon": -72.080443}, {"stop_id": "P-210", "stop_name": "Av. El Tejar esq. Escuela", "stop_lat": -36.617789, "stop_lon": -72.12017}, {"stop_id": "P-18", "stop_name": "5 De Abril esq. Arturo Prat", "stop_lat": -36.611853, "stop_lon": -72.102685}, {"stop_id": "P-201", "stop_name": "Av. Ecuador esq. Ecuador Int", "stop_lat": -36.602037, "stop_lon": -72.091259}, {"stop_id": "P-750", "stop_name": "Marchant esq. Serrano", "stop_lat": -36.619535, "stop_lon": -72.133612}, {"stop_id": "P-312", "stop_name": "Av. Vicente Mendez esq. Express Lider", "stop_lat": -36.591108, "stop_lon": -72.08431}, {"stop_id": "P-197", "stop_name": "Av. Ecuador esq. Av. Francia", "stop_lat": -36.599721, "stop_lon": -72.100605}, {"stop_id": "P-73", "stop_name": "Av. Alonso de Ercilla esq. Loma Blanca", "stop_lat": -36.625744, "stop_lon": -72.068955}, {"stop_id": "P-923", "stop_name": "Lenga esq. Las Rosas", "stop_lat": -36.589715, "stop_lon": -72.110042}, {"stop_id": "P-329", "stop_name": "Barros Arana esq. Los Alerces", "stop_lat": -36.627686, "stop_lon": -72.100213}]